~Version Information Section
VERS.          2.0                                     : CWLS LOG ASCII Standard
WRAP.          NO                                      : One line per depth step
CREA.          23/01/15                                : LAS Creation Date
~Well Information Section
STRT.ft        156.5000                                : Start Depth
STOP.ft        5559.5000                               : Stop Depth
STEP.ft        0.5000                                  : Step
NULL.          -999.2500                               : Null Value
COMP.          National Grid                           : Company
WELL.          42/25d-3                                : Well
FLD .          5-42                                    : Field
LOC .          Southern North Sea                      : Location
LOC1.          6013203.77mN 363100.21mE                : Location (UTM)
CTRY.          UK                                      : Country
PROV.          UKCS                                    : Province
STAT.          -                                       : State
CNTY.          -                                       : County
UWI .          502740                                  : UWI Number
API .          -                                       : API Number
SECT.          -                                       : Section
TOWN.          -                                       : Township
RNGE.          -                                       : Range
PDAT.          MSL                                     : Perm Datum
EPD .ft        0.00                                    : Elevation
LMF .          DF                                      : Log Measured From
DMF .          DF                                      : Drill Measured From
APD .ft        127.00                                  : Above Perm Datum
EKB .          -                                       : Elev-Kelly Bushing
EDF .ft        127.00                                  : Elev-Drill Floor
EGL .ft        -201.00                                 : Elev-Ground Level (Water Depth)
TDD .ft        5557.00                                 : Total Depth (Driller)
TDL .ft        5562.00                                 : Total Depth (Logger)
SRVC.          Schlumberger                            : Service Company
LATI.          54 14 50.284 N                          : Latitude
LONG.          00 53 56.356 E                          : Longitude
DATE.          03-Jun-29-JUN-2013                      : Logging Date
SET .          COMP WIRE                               : Set
~Curve Information Section
DEPTH.ft                                               : Depth Curve
AE10.ohmm                                              : AIT Env.Comp. Array Resistivity (AE10)
AE20.ohmm                                              : AIT Env.Comp. Array Resistivity (AE20)
AE30.ohmm                                              : AIT Env.Comp. Array Resistivity (AE30)
AE60.ohmm                                              : AIT Env.Comp. Array Resistivity (AE60)
AE90.ohmm                                              : AIT Env.Comp. Array Resistivity (AE90)
DTCO.us/ft                                             : Compressional Sonic
DTSM.us/ft                                             : Shear Sonic
GR.gAPI                                                : Gamma Ray
HDRA.g/cc                                              : Density Correction
PEF8.B/e                                               : Photo-electric Effect
RHOB.g/cc                                              : Bulk Density
TNPH.v/v                                               : Neutron Porosity
~ASCII Log Data Section
# ...
 3477.5000         2.0782      -999.2500      -999.2500         4.8579      -999.2500        85.8333       155.1042        50.1656      -999.2500      -999.2500         2.6818         0.1828     
 3478.0000         1.6028      -999.2500      -999.2500         3.6957      -999.2500        88.8021       164.1771        54.2781      -999.2500      -999.2500         2.6583         0.2053     
 3478.5000         1.2362      -999.2500      -999.2500         2.8116      -999.2500        91.7708       171.8958        59.5331      -999.2500      -999.2500         2.6284         0.2341     
 3479.0000         1.1653      -999.2500      -999.2500         1.9526      -999.2500        95.7292       179.6146        64.7881      -999.2500      -999.2500         2.5984         0.2628     
 3479.5000         1.3303      -999.2500      -999.2500         2.1684      -999.2500        95.7292       187.3333        70.0430      -999.2500      -999.2500         2.5685         0.2916     
 3480.0000         1.1520      -999.2500      -999.2500         2.5376      -999.2500        95.7292       195.7292        73.0132      -999.2500      -999.2500         2.5255         0.3203     
 3480.5000         1.2571      -999.2500      -999.2500         2.9696      -999.2500        93.0208       189.2292        69.0795      -999.2500      -999.2500         2.5151         0.3578     
 3481.0000         1.3833      -999.2500      -999.2500         3.4752      -999.2500        90.5208       182.1042        66.3377      -999.2500      -999.2500         2.5290         0.3441     
 3481.5000         1.5223      -999.2500      -999.2500         4.0669      -999.2500        89.4792       174.9792        63.5960      -999.2500      -999.2500         2.5490         0.3243     
 3482.0000         1.6117      -999.2500      -999.2500         4.7593      -999.2500        89.9137       170.7292        61.0927      -999.2500      -999.2500         2.5672         0.3045     
 3482.5000         1.5391      -999.2500      -999.2500         5.8855      -999.2500        90.2530       176.3958        64.4040      -999.2500      -999.2500         2.5704         0.2891     
 3483.0000         1.4895      -999.2500      -999.2500         3.9829      -999.2500        90.5923       180.4333        67.4503      -999.2500      -999.2500         2.5724         0.3168     
 3483.5000         1.4414      -999.2500      -999.2500         2.0486      -999.2500        90.9315       184.4708        69.3129      -999.2500      -999.2500         2.5542         0.3484     
 3484.0000         1.3957      -999.2500      -999.2500         2.2592      -999.2500        91.2708       188.4375        69.8841      -999.2500      -999.2500         2.5408         0.3426     
 3484.5000         1.4484      -999.2500      -999.2500         2.5203      -999.2500        91.5625       186.7458        70.4553      -999.2500      -999.2500         2.5255         0.3330     
 3485.0000         1.5022      -999.2500      -999.2500         2.8116      -999.2500        92.9167       185.0833        71.0265      -999.2500      -999.2500         2.5307         0.3234     
 3485.5000         1.5362      -999.2500      -999.2500         3.1365      -999.2500        94.1042       183.4208        72.7401      -999.2500      -999.2500         2.5367         0.3139     
 3486.0000         1.4062      -999.2500      -999.2500         3.6429      -999.2500        95.2917       181.1458        74.0066      -999.2500      -999.2500         2.5427         0.3043     
 3486.5000         1.3193      -999.2500      -999.2500         3.0651      -999.2500        96.4792       184.5208        71.6060      -999.2500      -999.2500         2.5487         0.2984     
 3487.0000         1.2377      -999.2500      -999.2500         2.3318      -999.2500        97.6667       189.8646        69.0397      -999.2500      -999.2500         2.5432         0.3234     
 3487.5000         1.1612      -999.2500      -999.2500         1.7740      -999.2500        98.8542       195.2083        72.2061      -999.2500      -999.2500         2.5273         0.3414     
 3488.0000         1.0980      -999.2500      -999.2500         2.1600      -999.2500       100.0417       200.5521        77.0613      -999.2500      -999.2500         2.5113         0.3594     
 3488.5000         1.8505      -999.2500      -999.2500         2.6299      -999.2500       100.9375       205.8958        81.9164      -999.2500      -999.2500         2.4953         0.3773     
 3489.0000         2.4819      -999.2500      -999.2500         3.2022      -999.2500        98.8244       211.2396        85.9272      -999.2500      -999.2500         2.4793         0.3953     
 3489.5000         1.9828      -999.2500      -999.2500         4.2067      -999.2500        97.1280       218.6458        82.7980      -999.2500      -999.2500         2.4682         0.4078     
 3490.0000         1.6828      -999.2500      -999.2500         3.7824      -999.2500        95.4315       210.0781        78.9735      -999.2500      -999.2500         2.4964         0.3812     
 3490.5000         1.3957      -999.2500      -999.2500         3.1810      -999.2500        93.7351       196.1250        79.2964      -999.2500      -999.2500         2.5179         0.3609     
 3491.0000         1.4177      -999.2500      -999.2500         2.6752      -999.2500        92.0387       182.1719        79.8675      -999.2500      -999.2500         2.5395         0.3405     
 3491.5000         1.4438      -999.2500      -999.2500         2.2498      -999.2500        90.5208       169.6875        80.4387      -999.2500      -999.2500         2.5620         0.3202     
 3492.0000         1.4642      -999.2500      -999.2500         1.8921      -999.2500        92.3583       174.7500        80.9603      -999.2500      -999.2500         2.5405         0.3016     
 3492.5000         1.3691      -999.2500      -999.2500         1.6909      -999.2500        94.0208       179.3304        79.5116      -999.2500      -999.2500         2.5180         0.3203     
 3493.0000         1.2963      -999.2500      -999.2500         1.5705      -999.2500        95.6833       183.9107        78.1788      -999.2500      -999.2500         2.4956         0.3376     
 3493.5000         1.2086      -999.2500      -999.2500         1.4869      -999.2500        97.8125       188.4911        76.8460      -999.2500      -999.2500         2.4939         0.3548     
 3494.0000         1.1393      -999.2500      -999.2500         1.3957      -999.2500        96.7448       193.0714        75.5132      -999.2500      -999.2500         2.5148         0.3766     
 3494.5000         1.0466      -999.2500      -999.2500         1.5732      -999.2500        95.2604       197.8125        74.0066      -999.2500      -999.2500         2.5358         0.3766     
 3495.0000         1.1033      -999.2500      -999.2500         1.8136      -999.2500        93.7760       190.0208        75.9934      -999.2500      -999.2500         2.5568         0.3766     
 3495.5000         1.1653      -999.2500      -999.2500         2.0906      -999.2500        92.6042       181.9458        73.1374      -999.2500      -999.2500         2.5777         0.2672     
 3496.0000         1.2308      -999.2500      -999.2500         2.4101      -999.2500        92.6042       173.8708        71.0265      -999.2500      -999.2500         2.5932         0.2881     
 3496.5000         1.3000      -999.2500      -999.2500         2.2700      -999.2500        93.5521       162.3958        75.5877      -999.2500      -999.2500         2.5615         0.3066     
 3497.0000         1.3957      -999.2500      -999.2500         1.5362      -999.2500        95.6302       194.6875        79.2053      -999.2500      -999.2500         2.5364         0.3250     
 3497.5000         1.3092      -999.2500      -999.2500         1.5012      -999.2500        97.7083       197.0486        82.8228      -999.2500      -999.2500         2.5112         0.3435     
