~Version Information Section
VERS.          2.0                                     : CWLS LOG ASCII Standard
WRAP.          NO                                      : One line per depth step
CREA.          23/01/15                                : LAS Creation Date
~Well Information Section
STRT.ft        156.5000                                : Start Depth
STOP.ft        5559.5000                               : Stop Depth
STEP.ft        0.5000                                  : Step
NULL.          -999.2500                               : Null Value
COMP.          National Grid                           : Company
WELL.          42/25d-3                                : Well
FLD .          5-42                                    : Field
LOC .          Southern North Sea                      : Location
LOC1.          6013203.77mN 363100.21mE                : Location (UTM)
CTRY.          UK                                      : Country
PROV.          UKCS                                    : Province
STAT.          -                                       : State
CNTY.          -                                       : County
UWI .          502740                                  : UWI Number
API .          -                                       : API Number
SECT.          -                                       : Section
TOWN.          -                                       : Township
RNGE.          -                                       : Range
PDAT.          MSL                                     : Perm Datum
EPD .ft        0.00                                    : Elevation
LMF .          DF                                      : Log Measured From
DMF .          DF                                      : Drill Measured From
APD .ft        127.00                                  : Above Perm Datum
EKB .          -                                       : Elev-Kelly Bushing
EDF .ft        127.00                                  : Elev-Drill Floor
EGL .ft        -201.00                                 : Elev-Ground Level (Water Depth)
TDD .ft        5557.00                                 : Total Depth (Driller)
TDL .ft        5562.00                                 : Total Depth (Logger)
SRVC.          Schlumberger                            : Service Company
LATI.          54 14 50.284 N                          : Latitude
LONG.          00 53 56.356 E                          : Longitude
DATE.          03-Jun-29-JUN-2013                      : Logging Date
SET .          COMP WIRE                               : Set
~Curve Information Section
DEPTH.ft                                               : Depth Curve
AE10.ohmm                                              : AIT Env.Comp. Array Resistivity (AE10)
AE20.ohmm                                              : AIT Env.Comp. Array Resistivity (AE20)
AE30.ohmm                                              : AIT Env.Comp. Array Resistivity (AE30)
AE60.ohmm                                              : AIT Env.Comp. Array Resistivity (AE60)
AE90.ohmm                                              : AIT Env.Comp. Array Resistivity (AE90)
DTCO.us/ft                                             : Compressional Sonic
DTSM.us/ft                                             : Shear Sonic
GR.gAPI                                                : Gamma Ray
HDRA.g/cc                                              : Density Correction
PEF8.B/e                                               : Photo-electric Effect
RHOB.g/cc                                              : Bulk Density
TNPH.v/v                                               : Neutron Porosity
~ASCII Log Data Section
# ...
 2678.0000         1.1519      -999.2500      -999.2500         1.1519      -999.2500       115.3927       278.6213        94.1275      -999.2500      -999.2500         2.4833         0.4828     
 2678.5000         1.2304      -999.2500      -999.2500         1.2304      -999.2500       113.3857       269.9913        94.1275      -999.2500      -999.2500         2.4891         0.4672     
 2679.0000         1.3436      -999.2500      -999.2500         1.3436      -999.2500       111.7277       261.3613        92.9195      -999.2500      -999.2500         2.4873         0.4391     
 2679.5000         1.2259      -999.2500      -999.2500         1.2259      -999.2500       111.0209       252.7312        91.7617      -999.2500      -999.2500         2.4856         0.4203     
 2680.0000         1.0557      -999.2500      -999.2500         1.0557      -999.2500       110.6806       247.8534        91.1074      -999.2500      -999.2500         2.4839         0.4375     
 2680.5000         1.0557      -999.2500      -999.2500         1.1287      -999.2500       112.4084       259.9476        91.6611      -999.2500      -999.2500         2.4821         0.4547     
 2681.0000         1.0557      -999.2500      -999.2500         1.2146      -999.2500       113.6126       268.3770        92.0470      -999.2500      -999.2500         2.4804         0.4409     
 2681.5000         1.0557      -999.2500      -999.2500         1.2803      -999.2500       114.8691       276.8063        92.4329      -999.2500      -999.2500         2.4786         0.4203     
 2682.0000         1.0557      -999.2500      -999.2500         1.1933      -999.2500       115.0611       284.5026        92.8188      -999.2500      -999.2500         2.4786         0.4358     
 2682.5000         1.0557      -999.2500      -999.2500         1.1294      -999.2500       115.2618       278.3944        93.1208      -999.2500      -999.2500         2.4786         0.4484     
 2683.0000         1.0557      -999.2500      -999.2500         1.0690      -999.2500       115.4625       272.7749        94.5302      -999.2500      -999.2500         2.4665         0.4441     
 2683.5000         1.0557      -999.2500      -999.2500         1.0060      -999.2500       115.6632       271.5707        96.1409      -999.2500      -999.2500         2.4526         0.4405     
 2684.0000         1.0557      -999.2500      -999.2500         1.0520      -999.2500       115.9162       276.1257        94.7315      -999.2500      -999.2500         2.4599         0.4359     
 2684.5000         1.0557      -999.2500      -999.2500         1.1059      -999.2500       114.1361       271.6754        92.1141      -999.2500      -999.2500         2.4719         0.4412     
 2685.0000         1.0557      -999.2500      -999.2500         1.1626      -999.2500       111.7277       265.6545        87.0805      -999.2500      -999.2500         2.4839         0.4484     
 2685.5000         1.0557      -999.2500      -999.2500         1.2222      -999.2500       109.6335       259.6335        88.2383      -999.2500      -999.2500         2.4779         0.4547     
 2686.0000         1.0907      -999.2500      -999.2500         1.2848      -999.2500       108.8168       253.6126        89.0940      -999.2500      -999.2500         2.4719         0.4161     
 2686.5000         1.1167      -999.2500      -999.2500         1.3506      -999.2500       108.0942       247.5916        92.1141      -999.2500      -999.2500         2.4682         0.3953     
 2687.0000         1.1434      -999.2500      -999.2500         1.4199      -999.2500       107.3717       241.5707        90.0503      -999.2500      -999.2500         2.4988         0.3841     
 2687.5000         1.1706      -999.2500      -999.2500         1.4926      -999.2500       106.4921       235.5497        88.0243      -999.2500      -999.2500         2.5255         0.3760     
 2688.0000         1.1985      -999.2500      -999.2500         1.5691      -999.2500       106.4921       229.0052        85.9983      -999.2500      -999.2500         2.5011         0.3672     
 2688.5000         1.2200      -999.2500      -999.2500         1.6294      -999.2500       106.4921       234.9738        84.0604      -999.2500      -999.2500         2.4700         0.3811     
 2689.0000         1.1656      -999.2500      -999.2500         1.2803      -999.2500       107.1204       241.5108        86.0738      -999.2500      -999.2500         2.4389         0.3964     
 2689.5000         1.1236      -999.2500      -999.2500         1.3461      -999.2500       107.5393       248.0479        88.0034      -999.2500      -999.2500         2.4077         0.4117     
 2690.0000         1.0832      -999.2500      -999.2500         1.4099      -999.2500       111.7277       254.5849        89.0940      -999.2500      -999.2500         2.3901         0.4270     
 2690.5000         1.0442      -999.2500      -999.2500         1.2236      -999.2500       111.8412       261.1219        90.2013      -999.2500      -999.2500         2.4331         0.4422     
 2691.0000         1.0060      -999.2500      -999.2500         1.0060      -999.2500       112.0419       268.7958        91.1074      -999.2500      -999.2500         2.4682         0.4575     
 2691.5000         1.0983      -999.2500      -999.2500         1.1057      -999.2500       112.2426       266.0957        93.4983      -999.2500      -999.2500         2.4699         0.4734     
 2692.0000         1.2009      -999.2500      -999.2500         1.2174      -999.2500       112.4433       262.8272        96.1409      -999.2500      -999.2500         2.4719         0.4453     
 2692.5000         1.3131      -999.2500      -999.2500         1.3403      -999.2500       112.6440       259.5587        96.7701      -999.2500      -999.2500         2.4734         0.4173     
 2693.0000         1.4358      -999.2500      -999.2500         1.4757      -999.2500       112.7749       256.2902        97.1477      -999.2500      -999.2500         2.4839         0.3916     
 2693.5000         1.5700      -999.2500      -999.2500         1.6247      -999.2500       106.6885       253.0217        83.6242      -999.2500      -999.2500         2.5242         0.3658     
 2694.0000         1.7167      -999.2500      -999.2500         1.7887      -999.2500       102.1728       248.9005        70.9732      -999.2500      -999.2500         2.5542         0.3401     
 2694.5000         1.8830      -999.2500      -999.2500         1.9760      -999.2500        97.0681       245.7592        72.6846      -999.2500      -999.2500         2.5880         0.3109     
 2695.0000         1.6492      -999.2500      -999.2500         1.7154      -999.2500        96.3700       227.4346        75.0000      -999.2500      -999.2500         2.5637         0.3281     
 2695.5000         1.4796      -999.2500      -999.2500         1.4815      -999.2500        95.5672       209.1099        77.3154      -999.2500      -999.2500         2.5358         0.3453     
 2696.0000         1.1626      -999.2500      -999.2500         1.3436      -999.2500        94.9738       208.8377        79.0268      -999.2500      -999.2500         2.5151         0.3142     
 2696.5000         1.6772      -999.2500      -999.2500         1.7578      -999.2500        95.4799       208.5969        80.4866      -999.2500      -999.2500         2.5099         0.2866     
 2697.0000         2.3964      -999.2500      -999.2500         2.2836      -999.2500        95.8813       208.3560        82.0470      -999.2500      -999.2500         2.5255         0.2892     
 2697.5000         2.6391      -999.2500      -999.2500         2.2114      -999.2500        96.2827       208.0628        86.0738      -999.2500      -999.2500         2.5143         0.3195     
 2698.0000         1.9215      -999.2500      -999.2500         2.1123      -999.2500        96.6841       194.4503        92.2483      -999.2500      -999.2500         2.4971         0.3498     
