~Version Information Section
VERS.          2.0                                     : CWLS LOG ASCII Standard
WRAP.          NO                                      : One line per depth step
CREA.          23/01/15                                : LAS Creation Date
~Well Information Section
STRT.ft        156.5000                                : Start Depth
STOP.ft        5559.5000                               : Stop Depth
STEP.ft        0.5000                                  : Step
NULL.          -999.2500                               : Null Value
COMP.          National Grid                           : Company
WELL.          42/25d-3                                : Well
FLD .          5-42                                    : Field
LOC .          Southern North Sea                      : Location
LOC1.          6013203.77mN 363100.21mE                : Location (UTM)
CTRY.          UK                                      : Country
PROV.          UKCS                                    : Province
STAT.          -                                       : State
CNTY.          -                                       : County
UWI .          502740                                  : UWI Number
API .          -                                       : API Number
SECT.          -                                       : Section
TOWN.          -                                       : Township
RNGE.          -                                       : Range
PDAT.          MSL                                     : Perm Datum
EPD .ft        0.00                                    : Elevation
LMF .          DF                                      : Log Measured From
DMF .          DF                                      : Drill Measured From
APD .ft        127.00                                  : Above Perm Datum
EKB .          -                                       : Elev-Kelly Bushing
EDF .ft        127.00                                  : Elev-Drill Floor
EGL .ft        -201.00                                 : Elev-Ground Level (Water Depth)
TDD .ft        5557.00                                 : Total Depth (Driller)
TDL .ft        5562.00                                 : Total Depth (Logger)
SRVC.          Schlumberger                            : Service Company
LATI.          54 14 50.284 N                          : Latitude
LONG.          00 53 56.356 E                          : Longitude
DATE.          03-Jun-29-JUN-2013                      : Logging Date
SET .          COMP WIRE                               : Set
~Curve Information Section
DEPTH.ft                                               : Depth Curve
AE10.ohmm                                              : AIT Env.Comp. Array Resistivity (AE10)
AE20.ohmm                                              : AIT Env.Comp. Array Resistivity (AE20)
AE30.ohmm                                              : AIT Env.Comp. Array Resistivity (AE30)
AE60.ohmm                                              : AIT Env.Comp. Array Resistivity (AE60)
AE90.ohmm                                              : AIT Env.Comp. Array Resistivity (AE90)
DTCO.us/ft                                             : Compressional Sonic
DTSM.us/ft                                             : Shear Sonic
GR.gAPI                                                : Gamma Ray
HDRA.g/cc                                              : Density Correction
PEF8.B/e                                               : Photo-electric Effect
RHOB.g/cc                                              : Bulk Density
TNPH.v/v                                               : Neutron Porosity
~ASCII Log Data Section
# ...
 3887.5000        10.3103      -999.2500      -999.2500        10.3103      -999.2500        67.6042       125.6771        49.1722      -999.2500      -999.2500         2.5175         0.0989     
 3888.0000         7.5077      -999.2500      -999.2500         7.5077      -999.2500        69.9479       131.6667        51.4711      -999.2500      -999.2500         2.4839         0.1218     
 3888.5000         5.4670      -999.2500      -999.2500         5.4670      -999.2500        72.9427       137.6563        54.4087      -999.2500      -999.2500         2.5367         0.1447     
 3889.0000         4.2067      -999.2500      -999.2500         4.2067      -999.2500        75.9375       143.6458        57.3463      -999.2500      -999.2500         2.5946         0.1677     
 3889.5000         3.5779      -999.2500      -999.2500         4.7885      -999.2500        78.0208       149.6354        60.2838      -999.2500      -999.2500         2.6349         0.1906     
 3890.0000         3.3096      -999.2500      -999.2500         5.6098      -999.2500        77.5000       158.2292        63.2214      -999.2500      -999.2500         2.6271         0.2234     
 3890.5000         3.4432      -999.2500      -999.2500         5.2706      -999.2500        76.9792       156.6042        67.0530      -999.2500      -999.2500         2.6211         0.2180     
 3891.0000         3.5395      -999.2500      -999.2500         4.7201      -999.2500        76.5030       153.7292        66.6556      -999.2500      -999.2500         2.6141         0.2082     
 3891.5000         3.6385      -999.2500      -999.2500         4.2270      -999.2500        75.8185       150.8542        66.0596      -999.2500      -999.2500         2.6367         0.1985     
 3892.0000         3.7403      -999.2500      -999.2500         3.7854      -999.2500        75.1339       147.9792        62.4172      -999.2500      -999.2500         2.6641         0.1888     
 3892.5000         3.8219      -999.2500      -999.2500         3.3900      -999.2500        74.4494       145.1042        58.6093      -999.2500      -999.2500         2.6914         0.1791     
 3893.0000         3.1245      -999.2500      -999.2500         3.0358      -999.2500        73.7649       142.2292        54.8013      -999.2500      -999.2500         2.7188         0.1694     
 3893.5000         3.0213      -999.2500      -999.2500         3.3136      -999.2500        72.8125       139.3542        50.9934      -999.2500      -999.2500         2.7462         0.1597     
 3894.0000         3.3738      -999.2500      -999.2500         4.8579      -999.2500        72.9745       136.4792        46.1921      -999.2500      -999.2500         2.7807         0.1500     
 3894.5000         3.8219      -999.2500      -999.2500         4.0161      -999.2500        73.2407       133.2292        46.1921      -999.2500      -999.2500         2.7586         0.1391     
 3895.0000         3.0799      -999.2500      -999.2500         3.1046      -999.2500        73.5069       138.0903        47.6112      -999.2500      -999.2500         2.7286         0.1578     
 3895.5000         2.4819      -999.2500      -999.2500         2.4819      -999.2500        73.7731       143.6806        49.2431      -999.2500      -999.2500         2.7286         0.1766     
 3896.0000         2.9925      -999.2500      -999.2500         2.9925      -999.2500        74.0394       147.8125        50.8751      -999.2500      -999.2500         2.7286         0.1693     
 3896.5000         3.5311      -999.2500      -999.2500         3.5311      -999.2500        74.3056       145.1693        52.5071      -999.2500      -999.2500         2.7286         0.1628     
 3897.0000         3.5822      -999.2500      -999.2500         3.5737      -999.2500        74.5718       143.0729        54.1391      -999.2500      -999.2500         2.7286         0.1563     
 3897.5000         3.1641      -999.2500      -999.2500         3.1420      -999.2500        74.8958       140.5208        56.1258      -999.2500      -999.2500         2.7130         0.1484     
 3898.0000         2.7947      -999.2500      -999.2500         2.7318      -999.2500        74.8958       140.2083        58.2119      -999.2500      -999.2500         2.6891         0.1574     
 3898.5000         2.4819      -999.2500      -999.2500         2.9710      -999.2500        74.8958       139.8090        60.8775      -999.2500      -999.2500         2.6651         0.1689     
 3899.0000         2.7318      -999.2500      -999.2500         3.2571      -999.2500        75.6771       139.4097        63.5430      -999.2500      -999.2500         2.6453         0.1804     
 3899.5000         2.9949      -999.2500      -999.2500         3.4723      -999.2500        76.4258       139.0104        66.2086      -999.2500      -999.2500         2.6418         0.1919     
 3900.0000         3.1546      -999.2500      -999.2500         2.5421      -999.2500        77.1745       138.4375        68.8742      -999.2500      -999.2500         2.6401         0.1984     
 3900.5000         1.8611      -999.2500      -999.2500         1.8611      -999.2500        77.9232       140.4688        71.5397      -999.2500      -999.2500         2.6212         0.1959     
 3901.0000         1.9714      -999.2500      -999.2500         1.9714      -999.2500        78.6719       144.0625        74.2053      -999.2500      -999.2500         2.6080         0.1941     
 3901.5000         2.1415      -999.2500      -999.2500         2.1415      -999.2500        79.4206       147.6563        76.9868      -999.2500      -999.2500         2.5948         0.1923     
 3902.0000         2.3262      -999.2500      -999.2500         2.3262      -999.2500        80.1042       151.2500        75.2980      -999.2500      -999.2500         2.5828         0.1905     
 3902.5000         2.5269      -999.2500      -999.2500         2.5269      -999.2500        80.1042       154.0625        73.5325      -999.2500      -999.2500         2.5966         0.1887     
 3903.0000         2.7449      -999.2500      -999.2500         2.7449      -999.2500        80.1042       154.0625        71.7670      -999.2500      -999.2500         2.6094         0.1869     
 3903.5000         2.6479      -999.2500      -999.2500         2.6831      -999.2500        80.1042       151.9141        70.0015      -999.2500      -999.2500         2.6221         0.1940     
 3904.0000         2.1492      -999.2500      -999.2500         2.2548      -999.2500        79.2708       147.4219        68.2360      -999.2500      -999.2500         2.6348         0.2107     
 3904.5000         2.2848      -999.2500      -999.2500         2.7089      -999.2500        77.9018       142.9297        66.4705      -999.2500      -999.2500         2.6476         0.2297     
 3905.0000         2.4819      -999.2500      -999.2500         3.4723      -999.2500        76.5327       138.4375        64.7050      -999.2500      -999.2500         2.6603         0.2078     
 3905.5000         2.6960      -999.2500      -999.2500         4.4507      -999.2500        75.1637       133.9453        62.9395      -999.2500      -999.2500         2.6714         0.1827     
 3906.0000         2.9286      -999.2500      -999.2500         5.7048      -999.2500        73.7946       129.4531        61.1740      -999.2500      -999.2500         2.6629         0.1575     
 3906.5000         3.1812      -999.2500      -999.2500         7.3122      -999.2500        72.4256       124.9609        60.0993      -999.2500      -999.2500         2.6554         0.1422     
 3907.0000         3.3096      -999.2500      -999.2500         9.3727      -999.2500        72.9315       122.8125        58.9073      -999.2500      -999.2500         2.6453         0.1692     
 3907.5000         3.0172      -999.2500      -999.2500        12.6798      -999.2500        75.1563       122.8125        58.0505      -999.2500      -999.2500         2.6512         0.1886     
