~Version Information Section
VERS.          2.0                                     : CWLS LOG ASCII Standard
WRAP.          NO                                      : One line per depth step
CREA.          23/01/15                                : LAS Creation Date
~Well Information Section
STRT.ft        156.5000                                : Start Depth
STOP.ft        5559.5000                               : Stop Depth
STEP.ft        0.5000                                  : Step
NULL.          -999.2500                               : Null Value
COMP.          National Grid                           : Company
WELL.          42/25d-3                                : Well
FLD .          5-42                                    : Field
LOC .          Southern North Sea                      : Location
LOC1.          6013203.77mN 363100.21mE                : Location (UTM)
CTRY.          UK                                      : Country
PROV.          UKCS                                    : Province
STAT.          -                                       : State
CNTY.          -                                       : County
UWI .          502740                                  : UWI Number
API .          -                                       : API Number
SECT.          -                                       : Section
TOWN.          -                                       : Township
RNGE.          -                                       : Range
PDAT.          MSL                                     : Perm Datum
EPD .ft        0.00                                    : Elevation
LMF .          DF                                      : Log Measured From
DMF .          DF                                      : Drill Measured From
APD .ft        127.00                                  : Above Perm Datum
EKB .          -                                       : Elev-Kelly Bushing
EDF .ft        127.00                                  : Elev-Drill Floor
EGL .ft        -201.00                                 : Elev-Ground Level (Water Depth)
TDD .ft        5557.00                                 : Total Depth (Driller)
TDL .ft        5562.00                                 : Total Depth (Logger)
SRVC.          Schlumberger                            : Service Company
LATI.          54 14 50.284 N                          : Latitude
LONG.          00 53 56.356 E                          : Longitude
DATE.          03-Jun-29-JUN-2013                      : Logging Date
SET .          COMP WIRE                               : Set
~Curve Information Section
DEPTH.ft                                               : Depth Curve
AE10.ohmm                                              : AIT Env.Comp. Array Resistivity (AE10)
AE20.ohmm                                              : AIT Env.Comp. Array Resistivity (AE20)
AE30.ohmm                                              : AIT Env.Comp. Array Resistivity (AE30)
AE60.ohmm                                              : AIT Env.Comp. Array Resistivity (AE60)
AE90.ohmm                                              : AIT Env.Comp. Array Resistivity (AE90)
DTCO.us/ft                                             : Compressional Sonic
DTSM.us/ft                                             : Shear Sonic
GR.gAPI                                                : Gamma Ray
HDRA.g/cc                                              : Density Correction
PEF8.B/e                                               : Photo-electric Effect
RHOB.g/cc                                              : Bulk Density
TNPH.v/v                                               : Neutron Porosity
~ASCII Log Data Section
# ...
 5097.0000         0.9073         0.6895         0.6588         0.6221         0.6037        74.0724      -999.2500        53.7264        -0.0027         2.9375         2.4616         0.1787     
 5097.5000         0.6763         0.5560         0.5453         0.5226         0.5102        75.5336      -999.2500        55.4089        -0.0035         2.9006         2.4020         0.1866     
 5098.0000         0.5174         0.4693         0.4635         0.4478         0.4403        77.4081      -999.2500        51.9254        -0.0061         2.8266         2.3165         0.2078     
 5098.5000         0.4301         0.4083         0.4053         0.3925         0.3881        79.8863      -999.2500        51.8539        -0.0089         2.5349         2.2397         0.2370     
 5099.0000         0.4215         0.3853         0.3705         0.3660         0.3639        82.1430      -999.2500        51.7289        -0.0096         2.5648         2.2607         0.2482     
 5099.5000         0.4663         0.4201         0.4120         0.4011         0.3974        82.3945      -999.2500        58.5151        -0.0067         2.5778         2.3513         0.2173     
 5100.0000         0.6385         0.5503         0.5395         0.5093         0.5093        80.7921      -999.2500        64.2998        -0.0022         2.8001         2.4404         0.1988     
 5100.5000         0.8221         0.6747         0.6395         0.6019         0.6075        79.4852      -999.2500        68.7009         0.0006         2.9550         2.4995         0.1910     
 5101.0000         0.6462         0.5490         0.5355         0.5138         0.5162        79.5960      -999.2500        64.0287        -0.0002         2.8317         2.3513         0.2081     
 5101.5000         0.5055         0.4422         0.4350         0.4271         0.4254        80.5204      -999.2500        59.1497        -0.0014         2.7479         2.3166         0.2102     
 5102.0000         0.4699         0.4169         0.4112         0.4057         0.4062        81.6316      -999.2500        53.8585        -0.0025         2.6024         2.3364         0.2062     
 5102.5000         0.4336         0.3890         0.3832         0.3792         0.3813        82.7075      -999.2500        54.8593        -0.0032         2.5585         2.3346         0.2111     
 5103.0000         0.4122         0.3742         0.3603         0.3520         0.3508        83.5301      -999.2500        55.8446        -0.0034         2.7056         2.2933         0.2312     
 5103.5000         0.4058         0.3693         0.3515         0.3402         0.3353        84.1114      -999.2500        57.0684        -0.0047         2.7568         2.2842         0.2488     
 5104.0000         0.4199         0.3807         0.3579         0.3455         0.3386        84.4297      -999.2500        57.6249        -0.0049         2.6585         2.2869         0.2536     
 5104.5000         0.4330         0.3886         0.3662         0.3546         0.3473        84.0788      -999.2500        54.6215        -0.0059         2.7564         2.2941         0.2354     
 5105.0000         0.4580         0.4035         0.3798         0.3685         0.3617        83.1616      -999.2500        51.9516        -0.0058         2.6533         2.3093         0.2255     
 5105.5000         0.4764         0.4146         0.3852         0.3764         0.3718        82.5700      -999.2500        49.2816        -0.0068         2.6008         2.2908         0.2217     
 5106.0000         0.4835         0.4114         0.3922         0.3841         0.3836        82.6088      -999.2500        49.3927        -0.0082         2.6111         2.2977         0.2323     
 5106.5000         0.4779         0.4128         0.3820         0.3804         0.3835        82.7245      -999.2500        52.1738        -0.0090         2.5943         2.3071         0.2248     
 5107.0000         0.4685         0.3933         0.3749         0.3679         0.3746        82.8545      -999.2500        52.3614        -0.0092         2.6721         2.2812         0.2177     
 5107.5000         0.4268         0.3730         0.3553         0.3448         0.3544        83.4236      -999.2500        53.7918        -0.0082         2.5848         2.2816         0.2079     
 5108.0000         0.4011         0.3549         0.3355         0.3372         0.3464        84.1385      -999.2500        52.4290        -0.0080         2.5398         2.2783         0.2104     
 5108.5000         0.4216         0.3733         0.3448         0.3424         0.3511        84.3372      -999.2500        52.7975        -0.0080         2.5891         2.2689         0.2163     
 5109.0000         0.4233         0.3762         0.3588         0.3566         0.3658        84.1997      -999.2500        53.2584        -0.0072         2.7299         2.2870         0.2150     
 5109.5000         0.4216         0.3763         0.3582         0.3559         0.3638        84.2741      -999.2500        53.6200        -0.0055         2.6588         2.2938         0.2220     
 5110.0000         0.3981         0.3617         0.3406         0.3440         0.3464        84.3693      -999.2500        54.2876        -0.0040         2.5787         2.3017         0.2261     
 5110.5000         0.4205         0.3851         0.3711         0.3714         0.3754        84.0585      -999.2500        52.1737        -0.0057         2.5797         2.3249         0.2260     
 5111.0000         0.5740         0.5000         0.4695         0.4684         0.4693        83.2703      -999.2500        56.6097        -0.0068         2.6529         2.3748         0.1941     
 5111.5000         0.7251         0.6156         0.5825         0.5823         0.5755        81.5348      -999.2500        60.2968        -0.0077         2.5794         2.3797         0.1638     
 5112.0000         0.9357         0.7212         0.6856         0.6853         0.6736        78.2937      -999.2500        64.8996        -0.0059         2.6332         2.4228         0.1542     
 5112.5000         1.2126         0.8983         0.8772         0.8597         0.8332        74.6281      -999.2500        67.8060        -0.0047         2.8978         2.4955         0.1462     
 5113.0000         1.4077         1.0081         0.9845         0.9805         0.9484        72.4614      -999.2500        65.4539        -0.0053         2.9852         2.5162         0.1417     
 5113.5000         1.2912         0.9434         0.9239         0.9118         0.8815        71.7366      -999.2500        60.8511        -0.0066         2.9213         2.4707         0.1331     
 5114.0000         1.0649         0.8403         0.8334         0.8272         0.7996        70.9887      -999.2500        53.9539        -0.0073         2.8998         2.4618         0.1362     
 5114.5000         0.8335         0.6977         0.6888         0.6834         0.6653        70.5090      -999.2500        51.2840        -0.0067         2.8603         2.4044         0.1427     
 5115.0000         0.6949         0.6081         0.5925         0.5881         0.5782        71.9291      -999.2500        52.6188        -0.0064         2.7813         2.3789         0.1632     
 5115.5000         0.6052         0.5478         0.5329         0.5321         0.5203        74.8647      -999.2500        53.2863        -0.0075         2.7292         2.3884         0.1765     
 5116.0000         0.5331         0.4937         0.4788         0.4767         0.4657        76.9256      -999.2500        52.0624        -0.0087         2.6603         2.3502         0.1780     
 5116.5000         0.4734         0.4445         0.4348         0.4349         0.4290        77.1245      -999.2500        51.1726        -0.0079         2.6262         2.3345         0.1767     
 5117.0000         0.5010         0.4588         0.4490         0.4467         0.4429        76.6931      -999.2500        48.2803        -0.0056         2.6405         2.3811         0.1666     
