~Version Information Section
VERS.          2.0                                     : CWLS LOG ASCII Standard
WRAP.          NO                                      : One line per depth step
CREA.          23/01/15                                : LAS Creation Date
~Well Information Section
STRT.ft        156.5000                                : Start Depth
STOP.ft        5559.5000                               : Stop Depth
STEP.ft        0.5000                                  : Step
NULL.          -999.2500                               : Null Value
COMP.          National Grid                           : Company
WELL.          42/25d-3                                : Well
FLD .          5-42                                    : Field
LOC .          Southern North Sea                      : Location
LOC1.          6013203.77mN 363100.21mE                : Location (UTM)
CTRY.          UK                                      : Country
PROV.          UKCS                                    : Province
STAT.          -                                       : State
CNTY.          -                                       : County
UWI .          502740                                  : UWI Number
API .          -                                       : API Number
SECT.          -                                       : Section
TOWN.          -                                       : Township
RNGE.          -                                       : Range
PDAT.          MSL                                     : Perm Datum
EPD .ft        0.00                                    : Elevation
LMF .          DF                                      : Log Measured From
DMF .          DF                                      : Drill Measured From
APD .ft        127.00                                  : Above Perm Datum
EKB .          -                                       : Elev-Kelly Bushing
EDF .ft        127.00                                  : Elev-Drill Floor
EGL .ft        -201.00                                 : Elev-Ground Level (Water Depth)
TDD .ft        5557.00                                 : Total Depth (Driller)
TDL .ft        5562.00                                 : Total Depth (Logger)
SRVC.          Schlumberger                            : Service Company
LATI.          54 14 50.284 N                          : Latitude
LONG.          00 53 56.356 E                          : Longitude
DATE.          03-Jun-29-JUN-2013                      : Logging Date
SET .          COMP WIRE                               : Set
~Curve Information Section
DEPTH.ft                                               : Depth Curve
AE10.ohmm                                              : AIT Env.Comp. Array Resistivity (AE10)
AE20.ohmm                                              : AIT Env.Comp. Array Resistivity (AE20)
AE30.ohmm                                              : AIT Env.Comp. Array Resistivity (AE30)
AE60.ohmm                                              : AIT Env.Comp. Array Resistivity (AE60)
AE90.ohmm                                              : AIT Env.Comp. Array Resistivity (AE90)
DTCO.us/ft                                             : Compressional Sonic
DTSM.us/ft                                             : Shear Sonic
GR.gAPI                                                : Gamma Ray
HDRA.g/cc                                              : Density Correction
PEF8.B/e                                               : Photo-electric Effect
RHOB.g/cc                                              : Bulk Density
TNPH.v/v                                               : Neutron Porosity
~ASCII Log Data Section
# ...
 4297.5000         6.7141      -999.2500      -999.2500        14.2954      -999.2500        81.2500       147.8125        78.9735      -999.2500      -999.2500         2.5411         0.2062     
 4298.0000         5.6896      -999.2500      -999.2500        16.1168      -999.2500        82.6875       151.3750        78.9735      -999.2500      -999.2500         2.5482         0.2278     
 4298.5000         4.8214      -999.2500      -999.2500         8.1652      -999.2500        84.1250       155.9271        80.5381      -999.2500      -999.2500         2.5572         0.2494     
 4299.0000         4.0856      -999.2500      -999.2500         4.4135      -999.2500        85.3125       160.4792        82.2517      -999.2500      -999.2500         2.5661         0.2709     
 4299.5000         3.4622      -999.2500      -999.2500         4.7092      -999.2500        85.3125       165.0313        83.9652      -999.2500      -999.2500         2.5724         0.2925     
 4300.0000         2.7318      -999.2500      -999.2500         5.0966      -999.2500        85.3125       167.6042        84.9338      -999.2500      -999.2500         2.5724         0.3047     
 4300.5000         3.5192      -999.2500      -999.2500         4.9901      -999.2500        83.7656       161.3542        84.9338      -999.2500      -999.2500         2.5724         0.2881     
 4301.0000         5.8855      -999.2500      -999.2500         4.8084      -999.2500        81.0469       160.9271        84.9338      -999.2500      -999.2500         2.5809         0.2765     
 4301.5000         4.9536      -999.2500      -999.2500         4.6303      -999.2500        78.3281       160.3125        78.5086      -999.2500      -999.2500         2.5932         0.2649     
 4302.0000         4.0393      -999.2500      -999.2500         6.4286      -999.2500        75.9375       149.2292        70.9033      -999.2500      -999.2500         2.6486         0.2547     
 4302.5000         3.4723      -999.2500      -999.2500         8.9766      -999.2500        75.0347       137.9514        63.2980      -999.2500      -999.2500         2.7050         0.1965     
 4303.0000         4.8428      -999.2500      -999.2500        12.5347      -999.2500        74.2292       131.1458        55.6927      -999.2500      -999.2500         2.7391         0.1445     
 4303.5000         6.3079      -999.2500      -999.2500        12.8719      -999.2500        74.0156       141.5625        54.0000      -999.2500      -999.2500         2.7180         0.1319     
 4304.0000         8.6387      -999.2500      -999.2500        10.1139      -999.2500        74.3177       139.4792        57.4570      -999.2500      -999.2500         2.7029         0.1537     
 4304.5000         7.2947      -999.2500      -999.2500         7.9469      -999.2500        74.6198       140.4583        60.9139      -999.2500      -999.2500         2.6870         0.1766     
 4305.0000         5.9209      -999.2500      -999.2500         6.2442      -999.2500        74.8958       141.5625        64.0728      -999.2500      -999.2500         2.7003         0.1766     
 4305.5000         4.8057      -999.2500      -999.2500         4.9063      -999.2500        74.4583       139.2000        62.8212      -999.2500      -999.2500         2.7144         0.1766     
 4306.0000         4.2067      -999.2500      -999.2500         4.2067      -999.2500        74.0556       137.0250        61.6689      -999.2500      -999.2500         2.7234         0.1766     
 4306.5000         5.1816      -999.2500      -999.2500         5.1816      -999.2500        74.6231       134.8500        60.8046      -999.2500      -999.2500         2.7109         0.1568     
 4307.0000         6.0385      -999.2500      -999.2500         6.0385      -999.2500        76.1610       132.1875        60.0993      -999.2500      -999.2500         2.6859         0.1423     
 4307.5000         7.0369      -999.2500      -999.2500         7.0369      -999.2500        77.6989       135.3750        62.6026      -999.2500      -999.2500         2.6609         0.1266     
 4308.0000         8.2005      -999.2500      -999.2500         8.2005      -999.2500        79.2367       139.4833        65.8291      -999.2500      -999.2500         2.6358         0.1469     
 4308.5000         9.5565      -999.2500      -999.2500         9.5565      -999.2500        80.7746       143.5917        69.0556      -999.2500      -999.2500         2.6108         0.1692     
 4309.0000        11.1368      -999.2500      -999.2500        11.1368      -999.2500        82.3125       147.7000        72.2821      -999.2500      -999.2500         2.5858         0.1914     
 4309.5000        11.6253      -999.2500      -999.2500        11.6253      -999.2500        83.8504       151.8083        74.9454      -999.2500      -999.2500         2.5738         0.2137     
 4310.0000        10.4660      -999.2500      -999.2500        10.4660      -999.2500        85.3883       155.9167        76.9619      -999.2500      -999.2500         2.5768         0.2360     
 4310.5000        21.9928      -999.2500      -999.2500        21.9928      -999.2500        86.9261       160.0250        78.9785      -999.2500      -999.2500         2.5798         0.2609     
 4311.0000        58.8545      -999.2500      -999.2500        58.8545      -999.2500        88.4375       164.1333        80.9950      -999.2500      -999.2500         2.5828         0.2758     
 4311.5000        20.8490      -999.2500      -999.2500        20.8490      -999.2500        89.3594       168.2417        83.0116      -999.2500      -999.2500         2.5490         0.2927     
 4312.0000         7.5167      -999.2500      -999.2500         7.5167      -999.2500        90.2656       172.3500        85.0281      -999.2500      -999.2500         2.5255         0.3096     
 4312.5000         3.7313      -999.2500      -999.2500         4.2067      -999.2500        91.5625       176.4583        87.9139      -999.2500      -999.2500         2.5164         0.3266     
 4313.0000         5.2103      -999.2500      -999.2500         8.9637      -999.2500        91.3333       180.5667        86.2748      -999.2500      -999.2500         2.5094         0.3484     
 4313.5000        11.5678      -999.2500      -999.2500        15.2080      -999.2500        90.9306       185.3125        82.9470      -999.2500      -999.2500         2.5023         0.3446     
 4314.0000        26.0383      -999.2500      -999.2500        26.0383      -999.2500        90.5278       185.3125        84.8940      -999.2500      -999.2500         2.4953         0.3391     
 4314.5000        17.1210      -999.2500      -999.2500        17.1210      -999.2500        90.1250       184.2708        87.1987      -999.2500      -999.2500         2.4891         0.3604     
 4315.0000        11.1751      -999.2500      -999.2500        11.1751      -999.2500        89.7222       174.3403        89.5033      -999.2500      -999.2500         2.5324         0.3822     
 4315.5000         7.2941      -999.2500      -999.2500         7.2941      -999.2500        89.4792       165.4792        90.8940      -999.2500      -999.2500         2.5711         0.3953     
 4316.0000         4.7610      -999.2500      -999.2500         4.7610      -999.2500        85.5417       156.6181        66.0596      -999.2500      -999.2500         2.6097         0.3055     
 4316.5000         2.8660      -999.2500      -999.2500         2.8660      -999.2500        82.7222       147.7569        67.9192      -999.2500      -999.2500         2.6557         0.2411     
 4317.0000         3.4995      -999.2500      -999.2500         3.4995      -999.2500        79.9028       138.4375        70.6848      -999.2500      -999.2500         2.6557         0.1734     
 4317.5000         4.4774      -999.2500      -999.2500         4.4774      -999.2500        77.0833       138.4375        73.4503      -999.2500      -999.2500         2.6557         0.1734     
