~Version Information Section
VERS.          2.0                                     : CWLS LOG ASCII Standard
WRAP.          NO                                      : One line per depth step
CREA.          23/01/15                                : LAS Creation Date
~Well Information Section
STRT.ft        156.5000                                : Start Depth
STOP.ft        5559.5000                               : Stop Depth
STEP.ft        0.5000                                  : Step
NULL.          -999.2500                               : Null Value
COMP.          National Grid                           : Company
WELL.          42/25d-3                                : Well
FLD .          5-42                                    : Field
LOC .          Southern North Sea                      : Location
LOC1.          6013203.77mN 363100.21mE                : Location (UTM)
CTRY.          UK                                      : Country
PROV.          UKCS                                    : Province
STAT.          -                                       : State
CNTY.          -                                       : County
UWI .          502740                                  : UWI Number
API .          -                                       : API Number
SECT.          -                                       : Section
TOWN.          -                                       : Township
RNGE.          -                                       : Range
PDAT.          MSL                                     : Perm Datum
EPD .ft        0.00                                    : Elevation
LMF .          DF                                      : Log Measured From
DMF .          DF                                      : Drill Measured From
APD .ft        127.00                                  : Above Perm Datum
EKB .          -                                       : Elev-Kelly Bushing
EDF .ft        127.00                                  : Elev-Drill Floor
EGL .ft        -201.00                                 : Elev-Ground Level (Water Depth)
TDD .ft        5557.00                                 : Total Depth (Driller)
TDL .ft        5562.00                                 : Total Depth (Logger)
SRVC.          Schlumberger                            : Service Company
LATI.          54 14 50.284 N                          : Latitude
LONG.          00 53 56.356 E                          : Longitude
DATE.          03-Jun-29-JUN-2013                      : Logging Date
SET .          COMP WIRE                               : Set
~Curve Information Section
DEPTH.ft                                               : Depth Curve
AE10.ohmm                                              : AIT Env.Comp. Array Resistivity (AE10)
AE20.ohmm                                              : AIT Env.Comp. Array Resistivity (AE20)
AE30.ohmm                                              : AIT Env.Comp. Array Resistivity (AE30)
AE60.ohmm                                              : AIT Env.Comp. Array Resistivity (AE60)
AE90.ohmm                                              : AIT Env.Comp. Array Resistivity (AE90)
DTCO.us/ft                                             : Compressional Sonic
DTSM.us/ft                                             : Shear Sonic
GR.gAPI                                                : Gamma Ray
HDRA.g/cc                                              : Density Correction
PEF8.B/e                                               : Photo-electric Effect
RHOB.g/cc                                              : Bulk Density
TNPH.v/v                                               : Neutron Porosity
~ASCII Log Data Section
# ...
 4892.0000         0.2854         0.2736         0.2702         0.2652         0.2677        85.2448       155.8643        52.4436        -0.0058         2.3401         2.1603         0.2651     
 4892.5000         0.3464         0.3097         0.2971         0.2930         0.3069        84.6207       155.2849        55.8924        -0.0006         2.4233         2.2918         0.2468     
 4893.0000         0.4626         0.3912         0.3742         0.3628         0.3634        84.0168       153.1993        56.7347         0.0031         3.0272         2.4626         0.2174     
 4893.5000         0.4947         0.4014         0.3851         0.3759         0.3752        83.3741       151.0833        54.2596         0.0010         2.8058         2.2875         0.2164     
 4894.0000         0.3954         0.3348         0.3279         0.3182         0.3138        83.3680       150.1798        50.4771        -0.0023         2.4139         2.2333         0.2195     
 4894.5000         0.3380         0.2966         0.2932         0.2880         0.2850        84.3218       150.6743        46.2501        -0.0033         2.4524         2.2606         0.2349     
 4895.0000         0.3446         0.3020         0.2986         0.2962         0.2964        85.4465       152.9282        48.7254        -0.0045         2.5508         2.2766         0.2465     
 4895.5000         0.3624         0.3200         0.3144         0.3070         0.3035        85.0484       154.0369        51.7291        -0.0063         2.4619         2.2750         0.2516     
 4896.0000         0.3687         0.3251         0.3179         0.3090         0.3099        84.6255       154.0395        56.5125        -0.0081         2.7527         2.2544         0.2493     
 4896.5000         0.3661         0.3176         0.3099         0.2980         0.2992        84.7054       153.5796        55.4001        -0.0071         2.4661         2.2047         0.2420     
 4897.0000         0.3618         0.3125         0.3040         0.2904         0.2938        85.3765       154.4558        60.7398        -0.0033         2.6029         2.3002         0.2271     
 4897.5000         0.3602         0.3104         0.3007         0.2876         0.2936        86.2419       155.2785        68.6381        -0.0007         2.9128         2.2865         0.2286     
 4898.0000         0.3399         0.2906         0.2788         0.2668         0.2739        86.8024       156.8141        72.6429        -0.0012         2.9099         2.2847         0.2375     
 4898.5000         0.3098         0.2732         0.2618         0.2478         0.2598        87.3546       157.7382        66.9694        -0.0057         2.6137         2.2159         0.2555     
 4899.0000         0.2846         0.2536         0.2419         0.2338         0.2405        87.9259       158.2972        56.5999        -0.0076         2.4150         2.1561         0.2643     
 4899.5000         0.2704         0.2469         0.2353         0.2267         0.2319        87.0807       158.3524        50.9194        -0.0076         2.4704         2.2016         0.2699     
 4900.0000         0.2819         0.2567         0.2429         0.2349         0.2387        86.0575       157.0135        46.7081        -0.0048         2.4920         2.1816         0.2889     
 4900.5000         0.3043         0.2710         0.2550         0.2477         0.2502        84.0858       154.0063        45.8420        -0.0022         2.4266         2.2171         0.2857     
 4901.0000         0.3443         0.2964         0.2778         0.2696         0.2696        83.1874       151.1450        42.8453        -0.0004         2.7829         2.3166         0.2586     
 4901.5000         0.4055         0.3369         0.3193         0.3093         0.3044        82.7732       149.5970        43.6081         0.0006         2.9442         2.3340         0.2318     
 4902.0000         0.4413         0.3467         0.3255         0.3172         0.3190        82.7099       149.2134        43.1631         0.0004         2.9370         2.3384         0.2221     
 4902.5000         0.3930         0.3144         0.3039         0.2981         0.2998        83.2424       149.5426        46.3684         0.0005         2.7044         2.2605         0.2219     
 4903.0000         0.3630         0.3010         0.2883         0.2842         0.2877        83.7437       150.1393        48.1086        -0.0004         2.5303         2.2696         0.2187     
 4903.5000         0.3544         0.2980         0.2878         0.2868         0.2913        84.4982       151.4095        51.1121        -0.0017         2.6628         2.2774         0.2174     
 4904.0000         0.3655         0.3069         0.2939         0.2892         0.2984        84.8190       152.3491        50.3541        -0.0031         2.6218         2.2443         0.2190     
 4904.5000         0.3672         0.3099         0.2955         0.2913         0.2994        84.8888       152.5793        50.7276        -0.0046         2.6379         2.2572         0.2271     
 4905.0000         0.3698         0.3136         0.3005         0.2954         0.3028        84.9967       152.5631        47.3904        -0.0069         2.5913         2.2758         0.2296     
 4905.5000         0.3798         0.3241         0.3094         0.3051         0.3140        84.3349       151.3411        44.9431        -0.0091         2.6704         2.2262         0.2313     
 4906.0000         0.3630         0.3094         0.2954         0.2928         0.2965        83.2516       150.1667        41.6057        -0.0106         2.7555         2.2063         0.2327     
 4906.5000         0.3549         0.3042         0.2883         0.2881         0.2881        82.4301       148.1523        44.2339        -0.0104         2.4627         2.2136         0.2218     
 4907.0000         0.4229         0.3486         0.3350         0.3308         0.3287        81.8620       146.4728        49.2398        -0.0098         2.7271         2.3473         0.2071     
 4907.5000         0.5157         0.4099         0.3986         0.3881         0.3832        81.2537       145.0622        55.3584        -0.0083         3.3091         2.3959         0.2081     
 4908.0000         0.5341         0.4094         0.3893         0.3811         0.3724        81.1191       143.6186        60.5174        -0.0069         2.8762         2.2961         0.2217     
 4908.5000         0.4779         0.3878         0.3779         0.3677         0.3588        81.5043       144.4102        64.1886        -0.0070         2.9556         2.3217         0.2373     
 4909.0000         0.4538         0.3789         0.3637         0.3525         0.3434        82.4460       145.5025        62.9648        -0.0072         2.9230         2.2941         0.2382     
 4909.5000         0.4351         0.3652         0.3497         0.3342         0.3276        82.9177       146.9452        56.1788        -0.0084         2.8156         2.2623         0.2335     
 4910.0000         0.4162         0.3558         0.3397         0.3236         0.3215        83.3964       147.5884        47.0567        -0.0081         2.7982         2.2721         0.2338     
 4910.5000         0.3925         0.3367         0.3223         0.3063         0.3082        83.9368       149.4405        45.0542        -0.0074         2.7014         2.2258         0.2344     
 4911.0000         0.3604         0.3135         0.2990         0.2888         0.2905        84.7095       150.6922        45.8329        -0.0056         2.6902         2.2291         0.2415     
 4911.5000         0.3334         0.2889         0.2766         0.2712         0.2741        84.8856       151.8108        47.9466        -0.0039         2.6802         2.2150         0.2431     
 4912.0000         0.3060         0.2674         0.2575         0.2581         0.2590        84.5021       152.0491        47.8353        -0.0027         2.6251         2.2067         0.2503     
