~Version Information Section
VERS.          2.0                                     : CWLS LOG ASCII Standard
WRAP.          NO                                      : One line per depth step
CREA.          23/01/15                                : LAS Creation Date
~Well Information Section
STRT.ft        156.5000                                : Start Depth
STOP.ft        5559.5000                               : Stop Depth
STEP.ft        0.5000                                  : Step
NULL.          -999.2500                               : Null Value
COMP.          National Grid                           : Company
WELL.          42/25d-3                                : Well
FLD .          5-42                                    : Field
LOC .          Southern North Sea                      : Location
LOC1.          6013203.77mN 363100.21mE                : Location (UTM)
CTRY.          UK                                      : Country
PROV.          UKCS                                    : Province
STAT.          -                                       : State
CNTY.          -                                       : County
UWI .          502740                                  : UWI Number
API .          -                                       : API Number
SECT.          -                                       : Section
TOWN.          -                                       : Township
RNGE.          -                                       : Range
PDAT.          MSL                                     : Perm Datum
EPD .ft        0.00                                    : Elevation
LMF .          DF                                      : Log Measured From
DMF .          DF                                      : Drill Measured From
APD .ft        127.00                                  : Above Perm Datum
EKB .          -                                       : Elev-Kelly Bushing
EDF .ft        127.00                                  : Elev-Drill Floor
EGL .ft        -201.00                                 : Elev-Ground Level (Water Depth)
TDD .ft        5557.00                                 : Total Depth (Driller)
TDL .ft        5562.00                                 : Total Depth (Logger)
SRVC.          Schlumberger                            : Service Company
LATI.          54 14 50.284 N                          : Latitude
LONG.          00 53 56.356 E                          : Longitude
DATE.          03-Jun-29-JUN-2013                      : Logging Date
SET .          COMP WIRE                               : Set
~Curve Information Section
DEPTH.ft                                               : Depth Curve
AE10.ohmm                                              : AIT Env.Comp. Array Resistivity (AE10)
AE20.ohmm                                              : AIT Env.Comp. Array Resistivity (AE20)
AE30.ohmm                                              : AIT Env.Comp. Array Resistivity (AE30)
AE60.ohmm                                              : AIT Env.Comp. Array Resistivity (AE60)
AE90.ohmm                                              : AIT Env.Comp. Array Resistivity (AE90)
DTCO.us/ft                                             : Compressional Sonic
DTSM.us/ft                                             : Shear Sonic
GR.gAPI                                                : Gamma Ray
HDRA.g/cc                                              : Density Correction
PEF8.B/e                                               : Photo-electric Effect
RHOB.g/cc                                              : Bulk Density
TNPH.v/v                                               : Neutron Porosity
~ASCII Log Data Section
# ...
 4092.5000         4.4188      -999.2500      -999.2500        35.9085      -999.2500        82.8385       161.5417        66.3825      -999.2500      -999.2500         2.4913         0.1749     
 4093.0000         4.0097      -999.2500      -999.2500        30.3876      -999.2500        84.3490       170.9667        73.0083      -999.2500      -999.2500         2.5472         0.2522     
 4093.5000         4.5949      -999.2500      -999.2500        25.7156      -999.2500        85.3125       176.9792        79.6341      -999.2500      -999.2500         2.5828         0.3016     
 4094.0000         5.1359      -999.2500      -999.2500        20.4855      -999.2500        84.9010       181.1458        81.8907      -999.2500      -999.2500         2.5856         0.2882     
 4094.5000         5.7405      -999.2500      -999.2500        11.4044      -999.2500        84.5990       178.0625        79.7781      -999.2500      -999.2500         2.5880         0.2783     
 4095.0000         6.4781      -999.2500      -999.2500         4.2067      -999.2500        84.2969       173.2292        77.6656      -999.2500      -999.2500         2.6044         0.2685     
 4095.5000         5.3399      -999.2500      -999.2500         3.8649      -999.2500        83.9948       168.3958        75.5530      -999.2500      -999.2500         2.6256         0.2586     
 4096.0000         4.3221      -999.2500      -999.2500         3.5226      -999.2500        83.6927       164.4792        73.4404      -999.2500      -999.2500         2.6467         0.2488     
 4096.5000         3.4984      -999.2500      -999.2500         3.2106      -999.2500        83.3906       166.6354        72.0199      -999.2500      -999.2500         2.6609         0.2422     
 4097.0000         2.6038      -999.2500      -999.2500         2.9262      -999.2500        82.1042       168.4479        70.1076      -999.2500      -999.2500         2.6663         0.2578     
 4097.5000         3.0184      -999.2500      -999.2500         2.6038      -999.2500        79.6875       170.7292        68.6672      -999.2500      -999.2500         2.6714         0.2316     
 4098.0000         3.8558      -999.2500      -999.2500         3.2670      -999.2500        76.9792       159.0833        67.0530      -999.2500      -999.2500         2.6997         0.1881     
 4098.5000         4.9255      -999.2500      -999.2500         4.4368      -999.2500        76.9792       143.3750        61.3113      -999.2500      -999.2500         2.7380         0.1453     
 4099.0000         6.2919      -999.2500      -999.2500         6.0254      -999.2500        76.9792       130.1042        54.7815      -999.2500      -999.2500         2.7703         0.1668     
 4099.5000         7.4808      -999.2500      -999.2500         7.4808      -999.2500        79.0623       142.6258        50.1656      -999.2500      -999.2500         2.7402         0.1880     
 4100.0000         2.6038      -999.2500      -999.2500         2.6038      -999.2500        80.8657       153.4655        56.5946      -999.2500      -999.2500         2.7142         0.2091     
 4100.5000         2.8660      -999.2500      -999.2500         2.8660      -999.2500        82.6691       167.6042        63.0795      -999.2500      -999.2500         2.6881         0.2302     
 4101.0000         2.7161      -999.2500      -999.2500         2.7161      -999.2500        84.4724       168.9931        66.2583      -999.2500      -999.2500         2.6621         0.2514     
 4101.5000         2.5142      -999.2500      -999.2500         2.5142      -999.2500        86.3542       170.9896        70.8278      -999.2500      -999.2500         2.6349         0.2734     
 4102.0000         2.3274      -999.2500      -999.2500         2.3274      -999.2500        85.4375       172.8125        75.0000      -999.2500      -999.2500         2.6292         0.2812     
 4102.5000         2.1544      -999.2500      -999.2500         2.1544      -999.2500        84.4792       167.9297        77.0695      -999.2500      -999.2500         2.6232         0.2893     
 4103.0000         2.0486      -999.2500      -999.2500         2.0486      -999.2500        83.5208       163.4375        78.9735      -999.2500      -999.2500         2.6193         0.2973     
 4103.5000         2.2067      -999.2500      -999.2500         2.8273      -999.2500        82.1875       157.1875        79.9669      -999.2500      -999.2500         2.6327         0.2422     
 4104.0000         2.3318      -999.2500      -999.2500         3.8219      -999.2500        82.7344       159.8611        79.9669      -999.2500      -999.2500         2.6427         0.2477     
 4104.5000         2.4819      -999.2500      -999.2500         3.6394      -999.2500        83.6328       164.2535        76.8709      -999.2500      -999.2500         2.6527         0.2566     
 4105.0000         2.5508      -999.2500      -999.2500         3.4063      -999.2500        84.5313       168.6458        72.6821      -999.2500      -999.2500         2.6627         0.2656     
 4105.5000         2.6325      -999.2500      -999.2500         3.1881      -999.2500        85.3125       163.8542        69.0397      -999.2500      -999.2500         2.6714         0.2734     
 4106.0000         2.7169      -999.2500      -999.2500         2.9839      -999.2500        83.9583       159.0625        68.7815      -999.2500      -999.2500         2.6668         0.2556     
 4106.5000         2.8039      -999.2500      -999.2500         2.8660      -999.2500        82.7604       154.2708        68.5530      -999.2500      -999.2500         2.6628         0.2397     
 4107.0000         2.8937      -999.2500      -999.2500         3.4723      -999.2500        81.1458       147.8125        68.3245      -999.2500      -999.2500         2.6630         0.2239     
 4107.5000         3.0069      -999.2500      -999.2500         3.9857      -999.2500        81.3411       149.6875        68.0464      -999.2500      -999.2500         2.6670         0.2047     
 4108.0000         2.7981      -999.2500      -999.2500         4.6303      -999.2500        81.6406       152.5625        69.2384      -999.2500      -999.2500         2.6714         0.2253     
 4108.5000         2.5523      -999.2500      -999.2500         3.9810      -999.2500        81.9401       155.4375        70.7616      -999.2500      -999.2500         2.6622         0.2517     
 4109.0000         2.3656      -999.2500      -999.2500         3.3738      -999.2500        82.1875       158.3125        72.0199      -999.2500      -999.2500         2.6523         0.2734     
 4109.5000         2.6928      -999.2500      -999.2500         3.0069      -999.2500        80.3125       160.3125        69.8742      -999.2500      -999.2500         2.6453         0.2557     
 4110.0000         3.1546      -999.2500      -999.2500         3.8680      -999.2500        78.0208       151.9792        68.0464      -999.2500      -999.2500         2.6570         0.2406     
 4110.5000         3.1546      -999.2500      -999.2500         4.6918      -999.2500        79.3750       143.6458        66.2185      -999.2500      -999.2500         2.6660         0.2255     
 4111.0000         3.1546      -999.2500      -999.2500         5.8855      -999.2500        81.7708       146.5625        64.0728      -999.2500      -999.2500         2.6766         0.2078     
 4111.5000         3.1546      -999.2500      -999.2500         5.8855      -999.2500        84.1667       150.7552        66.8096      -999.2500      -999.2500         2.6554         0.2248     
 4112.0000         3.1546      -999.2500      -999.2500         5.5243      -999.2500        86.3542       154.9479        70.1225      -999.2500      -999.2500         2.6297         0.2453     
 4112.5000         2.6352      -999.2500      -999.2500         5.1705      -999.2500        87.6563       159.1406        73.4354      -999.2500      -999.2500         2.6040         0.2658     
