~Version Information Section
VERS.          2.0                                     : CWLS LOG ASCII Standard
WRAP.          NO                                      : One line per depth step
CREA.          23/01/15                                : LAS Creation Date
~Well Information Section
STRT.ft        156.5000                                : Start Depth
STOP.ft        5559.5000                               : Stop Depth
STEP.ft        0.5000                                  : Step
NULL.          -999.2500                               : Null Value
COMP.          National Grid                           : Company
WELL.          42/25d-3                                : Well
FLD .          5-42                                    : Field
LOC .          Southern North Sea                      : Location
LOC1.          6013203.77mN 363100.21mE                : Location (UTM)
CTRY.          UK                                      : Country
PROV.          UKCS                                    : Province
STAT.          -                                       : State
CNTY.          -                                       : County
UWI .          502740                                  : UWI Number
API .          -                                       : API Number
SECT.          -                                       : Section
TOWN.          -                                       : Township
RNGE.          -                                       : Range
PDAT.          MSL                                     : Perm Datum
EPD .ft        0.00                                    : Elevation
LMF .          DF                                      : Log Measured From
DMF .          DF                                      : Drill Measured From
APD .ft        127.00                                  : Above Perm Datum
EKB .          -                                       : Elev-Kelly Bushing
EDF .ft        127.00                                  : Elev-Drill Floor
EGL .ft        -201.00                                 : Elev-Ground Level (Water Depth)
TDD .ft        5557.00                                 : Total Depth (Driller)
TDL .ft        5562.00                                 : Total Depth (Logger)
SRVC.          Schlumberger                            : Service Company
LATI.          54 14 50.284 N                          : Latitude
LONG.          00 53 56.356 E                          : Longitude
DATE.          03-Jun-29-JUN-2013                      : Logging Date
SET .          COMP WIRE                               : Set
~Curve Information Section
DEPTH.ft                                               : Depth Curve
AE10.ohmm                                              : AIT Env.Comp. Array Resistivity (AE10)
AE20.ohmm                                              : AIT Env.Comp. Array Resistivity (AE20)
AE30.ohmm                                              : AIT Env.Comp. Array Resistivity (AE30)
AE60.ohmm                                              : AIT Env.Comp. Array Resistivity (AE60)
AE90.ohmm                                              : AIT Env.Comp. Array Resistivity (AE90)
DTCO.us/ft                                             : Compressional Sonic
DTSM.us/ft                                             : Shear Sonic
GR.gAPI                                                : Gamma Ray
HDRA.g/cc                                              : Density Correction
PEF8.B/e                                               : Photo-electric Effect
RHOB.g/cc                                              : Bulk Density
TNPH.v/v                                               : Neutron Porosity
~ASCII Log Data Section
# ...
 4502.5000        27.1502        16.6735        14.9191        15.3140        14.7130        80.1042       139.0451        57.2185         0.1207         7.4480         2.4816         0.1953     
 4503.0000        23.4871        18.1421        12.2769        10.2074         9.9137        76.5625       139.2535        45.7947         0.0906         6.8230         2.3421         0.0745     
 4503.5000        11.3895        11.2506         8.6608         6.9574         6.8236        74.0625       139.4792        34.3709         0.0432         5.5893         2.1199         0.0122     
 4504.0000        17.1247        21.9756        12.7994         8.6403         8.4374        71.5625       130.3125        18.3775         0.0126         5.6486         2.1037        -0.0123     
 4504.5000        27.2435        49.2396        24.4506        13.1373        12.6724        69.6875       122.8125        14.6844         0.0006         5.4600         2.1785        -0.0210     
 4505.0000        25.0103        30.0084        25.1666        17.0750        16.1483        69.4271       123.4375        15.9081         0.0024         5.6839         2.0644        -0.0229     
 4505.5000        55.3582        11.6786        11.6408        10.3467        10.0714        68.4757       123.2737        16.0432         0.0003         5.7719         2.0467        -0.0213     
 4506.0000        82.4656        18.8565        20.2994        20.6489        19.6009        68.4893       123.1525        16.3770         0.0030         5.6993         2.0657        -0.0193     
 4506.5000       240.0930        37.0490        42.6879        40.1445        37.6429        68.3301       123.0130        16.4882         0.0046         5.7882         2.0745        -0.0158     
 4507.0000       298.0320        73.0736        92.8435        89.9785        84.7230        68.3613       122.9614        16.9093         0.0044         5.5847         2.0725        -0.0142     
 4507.5000       318.1105        83.5335       139.0630       183.0657       169.1413        68.9142       123.6918        16.5754         0.0033         5.7708         2.0972        -0.0159     
 4508.0000       471.3792       160.4562       249.3912       211.6521       182.0626        69.4418       123.9973        15.7967        -0.0015         5.9940         2.0526        -0.0214     
 4508.5000       504.5147       286.8747       279.5176       160.1561       149.4919        70.1948       124.2275        14.9068        -0.0062         5.6622         2.1140        -0.0242     
 4509.0000       360.4516       200.7540       162.4677       119.0340       107.6063        70.3468       125.3035        13.5719        -0.0086         5.5442         2.1471        -0.0251     
 4509.5000       534.3020       316.2967       201.9004       127.9436       108.7720        70.5965       125.3899        13.9057        -0.0060         5.5786         2.0933        -0.0244     
 4510.0000       620.9958       291.4588       195.7039       152.2587       115.7074        70.9128       125.9785        12.9045        -0.0009         5.6814         2.0424        -0.0217     
 4510.5000       728.4037       373.6313       256.3759       199.4079       144.8414        70.8177       126.4621        13.6832         0.0016         5.7930         2.0688        -0.0211     
 4511.0000       490.1298       283.6490       188.0454       158.2708       128.7758        70.2911       126.6521        12.7932         0.0024         5.5353         2.0694        -0.0201     
 4511.5000       320.3810       146.1954       122.8756       109.7712       100.7266        68.8612       125.3519        12.5707         0.0021         6.1087         1.9949        -0.0198     
 4512.0000       335.0869       144.4387       129.3673        98.9002        95.5840        68.2444       123.2082        11.3470         0.0020         5.8161         2.0445        -0.0194     
 4512.5000       321.3377       195.8076       184.7883       126.6096       122.6008        68.3131       123.4373        11.1245         0.0011         5.4699         2.0507        -0.0211     
 4513.0000       304.7038       205.0779       233.1914       157.6108       159.5193        68.6781       123.2267        12.1257        -0.0002         5.7393         2.0478        -0.0233     
 4513.5000       354.3828       193.4415       240.8139       147.4387       135.9074        69.1265       122.1015        11.4424        -0.0012         5.7456         2.0895        -0.0250     
 4514.0000       381.3287       186.5186       239.6199       156.0702       135.4945        69.2973       122.4330        12.7773        -0.0023         5.5641         2.0701        -0.0249     
 4514.5000       407.4165       192.4010       258.3425       179.7431       131.7676        70.3781       121.4673        12.9998        -0.0043         5.6639         2.0489        -0.0239     
 4515.0000       425.8743       182.4371       281.5112       184.0825       144.4525        70.6996       116.9061        13.9057        -0.0071         5.5485         2.0638        -0.0231     
 4515.5000       376.6294       213.9674       259.5458       188.2560       135.4939        75.2874       116.6151        13.0157        -0.0114         5.5152         2.0625        -0.0207     
 4516.0000       341.2582       229.6290       270.0090       209.0515       141.1971        80.1079       122.2333        11.9032        -0.0159         5.6548         2.1083        -0.0207     
 4516.5000       408.2877       264.6363       300.7450       261.5233       156.3433        81.2595       129.2686        12.5706        -0.0128         5.8213         2.0842        -0.0187     
 4517.0000       401.0852       308.4271       318.9720       290.3874       173.0405        81.6130       135.4525        12.4594        -0.0028         5.9805         1.9699        -0.0223     
 4517.5000       315.0617       288.9399       304.0148       351.8064       180.9369        80.8800       137.3417        13.2064         0.0100         6.1089         1.9599        -0.0257     
 4518.0000       246.7525       260.8407       280.1479       375.7812       165.9517        79.9353       137.0296        12.0800         0.0336         8.6543         1.7811        -0.0257     
 4518.5000       204.2344       231.0956       272.8205       332.6533       224.1041        70.7974       133.5256        12.6045         0.0485         9.1742         1.9822        -0.0287     
 4519.0000       142.9196       234.2016       220.2860       280.6413       226.5664        70.7533       123.1150        15.6399         0.0417         6.1021         2.1183        -0.0176     
 4519.5000       125.6144       198.9681       186.1261       243.8653       230.7326        70.0289       119.4959        20.8823         0.0169         5.3869         2.1757        -0.0141     
 4520.0000       121.3382       231.6609       163.2176       204.3636       240.6269        69.2974       120.5559        24.4739        -0.0056         5.0970         2.2406        -0.0097     
 4520.5000       118.4729       343.6769       149.9244       171.5143       205.1365        68.7370       119.3243        23.2502        -0.0099         5.0082         2.4784        -0.0168     
 4521.0000       204.4576       397.1891       213.3608       259.3541       283.1993        68.2510       118.5653        18.8004        -0.0124         5.3115         2.2452        -0.0279     
 4521.5000       305.0241       421.6768       245.8140       269.7136       436.4445        68.1157       118.0436        14.7956        -0.0138         5.3979         2.0052        -0.0355     
 4522.0000       520.5811       428.5306       357.0715       456.6164       610.9034        68.2056       117.9165        12.0144        -0.0133         5.5062         2.0190        -0.0383     
 4522.5000      1105.3560       345.6117       422.6897       477.8763       691.5102        68.3268       118.0801        12.4594        -0.0125         5.6087         2.0138        -0.0390     
