~Version Information Section
VERS.          2.0                                     : CWLS LOG ASCII Standard
WRAP.          NO                                      : One line per depth step
CREA.          23/01/15                                : LAS Creation Date
~Well Information Section
STRT.ft        156.5000                                : Start Depth
STOP.ft        5559.5000                               : Stop Depth
STEP.ft        0.5000                                  : Step
NULL.          -999.2500                               : Null Value
COMP.          National Grid                           : Company
WELL.          42/25d-3                                : Well
FLD .          5-42                                    : Field
LOC .          Southern North Sea                      : Location
LOC1.          6013203.77mN 363100.21mE                : Location (UTM)
CTRY.          UK                                      : Country
PROV.          UKCS                                    : Province
STAT.          -                                       : State
CNTY.          -                                       : County
UWI .          502740                                  : UWI Number
API .          -                                       : API Number
SECT.          -                                       : Section
TOWN.          -                                       : Township
RNGE.          -                                       : Range
PDAT.          MSL                                     : Perm Datum
EPD .ft        0.00                                    : Elevation
LMF .          DF                                      : Log Measured From
DMF .          DF                                      : Drill Measured From
APD .ft        127.00                                  : Above Perm Datum
EKB .          -                                       : Elev-Kelly Bushing
EDF .ft        127.00                                  : Elev-Drill Floor
EGL .ft        -201.00                                 : Elev-Ground Level (Water Depth)
TDD .ft        5557.00                                 : Total Depth (Driller)
TDL .ft        5562.00                                 : Total Depth (Logger)
SRVC.          Schlumberger                            : Service Company
LATI.          54 14 50.284 N                          : Latitude
LONG.          00 53 56.356 E                          : Longitude
DATE.          03-Jun-29-JUN-2013                      : Logging Date
SET .          COMP WIRE                               : Set
~Curve Information Section
DEPTH.ft                                               : Depth Curve
AE10.ohmm                                              : AIT Env.Comp. Array Resistivity (AE10)
AE20.ohmm                                              : AIT Env.Comp. Array Resistivity (AE20)
AE30.ohmm                                              : AIT Env.Comp. Array Resistivity (AE30)
AE60.ohmm                                              : AIT Env.Comp. Array Resistivity (AE60)
AE90.ohmm                                              : AIT Env.Comp. Array Resistivity (AE90)
DTCO.us/ft                                             : Compressional Sonic
DTSM.us/ft                                             : Shear Sonic
GR.gAPI                                                : Gamma Ray
HDRA.g/cc                                              : Density Correction
PEF8.B/e                                               : Photo-electric Effect
RHOB.g/cc                                              : Bulk Density
TNPH.v/v                                               : Neutron Porosity
~ASCII Log Data Section
# ...
 3272.5000         1.7099      -999.2500      -999.2500         6.2865      -999.2500       102.5131       223.6300        83.0537      -999.2500      -999.2500         2.4057         0.4180     
 3273.0000         1.4796      -999.2500      -999.2500         4.1927      -999.2500       104.3037       220.4468        80.7987      -999.2500      -999.2500         2.3857         0.4072     
 3273.5000         1.3138      -999.2500      -999.2500         3.0060      -999.2500       106.0942       217.4869        78.9463      -999.2500      -999.2500         2.3692         0.3964     
 3274.0000         1.1666      -999.2500      -999.2500         2.1552      -999.2500       107.5393       227.9581        77.0940      -999.2500      -999.2500         2.3484         0.3828     
 3274.5000         1.0359      -999.2500      -999.2500         1.5452      -999.2500       107.5393       221.9770        75.0000      -999.2500      -999.2500         2.3853         0.4001     
 3275.0000         0.9198      -999.2500      -999.2500         1.1079      -999.2500       106.6230       216.9634        75.1119      -999.2500      -999.2500         2.4352         0.4234     
 3275.5000         0.8295      -999.2500      -999.2500         0.8295      -999.2500       104.5340       211.9497        75.2405      -999.2500      -999.2500         2.4786         0.3965     
 3276.0000         1.2865      -999.2500      -999.2500         1.7058      -999.2500       102.4450       205.9686        75.3691      -999.2500      -999.2500         2.4482         0.3695     
 3276.5000         1.8967      -999.2500      -999.2500         3.2276      -999.2500       100.2094       210.1431        75.4978      -999.2500      -999.2500         2.4318         0.3426     
 3277.0000         2.2346      -999.2500      -999.2500         7.6240      -999.2500        98.1152       215.3159        75.6264      -999.2500      -999.2500         2.3880         0.3325     
 3277.5000         2.1436      -999.2500      -999.2500         6.4957      -999.2500        98.1152       219.5812        75.7550      -999.2500      -999.2500         2.3566         0.3379     
 3278.0000         2.0562      -999.2500      -999.2500         5.0812      -999.2500        98.1152       217.2426        75.8837      -999.2500      -999.2500         2.3224         0.3433     
 3278.5000         1.9725      -999.2500      -999.2500         3.9747      -999.2500        98.1152       215.2531        76.0067      -999.2500      -999.2500         2.3646         0.3487     
 3279.0000         1.8921      -999.2500      -999.2500         3.1092      -999.2500        98.1152       197.5916        72.9866      -999.2500      -999.2500         2.4108         0.3541     
 3279.5000         1.8150      -999.2500      -999.2500         2.4322      -999.2500        98.1152       197.7508        70.9732      -999.2500      -999.2500         2.4570         0.3578     
 3280.0000         1.7099      -999.2500      -999.2500         1.7099      -999.2500        96.2304       197.9895        68.9597      -999.2500      -999.2500         2.5032         0.3328     
 3280.5000         1.9655      -999.2500      -999.2500         2.2232      -999.2500        93.8429       198.2283        67.7139      -999.2500      -999.2500         2.5494         0.3136     
 3281.0000         2.5148      -999.2500      -999.2500         3.5373      -999.2500        91.4555       198.4670        66.8456      -999.2500      -999.2500         2.6036         0.2945     
 3281.5000         3.2177      -999.2500      -999.2500         5.6283      -999.2500        89.0681       198.6387        65.9396      -999.2500      -999.2500         2.5880         0.2753     
 3282.0000         4.1170      -999.2500      -999.2500         8.9552      -999.2500        87.6440       187.4276        65.9396      -999.2500      -999.2500         2.5594         0.2578     
 3282.5000         5.2677      -999.2500      -999.2500        14.2488      -999.2500        86.5969       175.6021        65.9396      -999.2500      -999.2500         2.5294         0.2871     
 3283.0000         6.7400      -999.2500      -999.2500        22.6715      -999.2500        86.9843       183.7382        69.4631      -999.2500      -999.2500         2.4995         0.3141     
 3283.5000         8.6239      -999.2500      -999.2500        43.2622      -999.2500        87.6440       196.2723        72.3574      -999.2500      -999.2500         2.4695         0.3516     
 3284.0000        11.7669      -999.2500      -999.2500        57.7781      -999.2500        88.7120       208.8063        76.0067      -999.2500      -999.2500         2.4396         0.3720     
 3284.5000         8.1368      -999.2500      -999.2500        31.2426      -999.2500        89.9058       219.5812        75.4933      -999.2500      -999.2500         2.4057         0.4055     
 3285.0000         4.9397      -999.2500      -999.2500        13.5985      -999.2500        91.0995       216.3482        74.7987      -999.2500      -999.2500         2.4203         0.4391     
 3285.5000         2.9988      -999.2500      -999.2500         5.9188      -999.2500        92.2932       213.5131        74.1040      -999.2500      -999.2500         2.4371         0.4258     
 3286.0000         1.8205      -999.2500      -999.2500         2.5762      -999.2500        93.1832       210.6780        73.4094      -999.2500      -999.2500         2.4539         0.4125     
 3286.5000         1.3436      -999.2500      -999.2500         1.5527      -999.2500        93.7801       207.8429        72.9866      -999.2500      -999.2500         2.4706         0.3992     
 3287.0000         2.4907      -999.2500      -999.2500         3.0695      -999.2500        94.3770       205.0079        76.0067      -999.2500      -999.2500         2.4755         0.3859     
 3287.5000         4.2744      -999.2500      -999.2500         5.0097      -999.2500        94.9738       202.1728        77.1393      -999.2500      -999.2500         2.4682         0.3726     
 3288.0000         3.6606      -999.2500      -999.2500         8.1761      -999.2500        96.0209       199.6859        79.0268      -999.2500      -999.2500         2.4120         0.3593     
 3288.5000         3.0029      -999.2500      -999.2500        13.3441      -999.2500        98.9250       203.7068        76.9128      -999.2500      -999.2500         2.3401         0.3460     
 3289.0000         2.4634      -999.2500      -999.2500        20.0000      -999.2500       101.5113       207.2880        75.0000      -999.2500      -999.2500         2.2807         0.3327     
 3289.5000         2.0208      -999.2500      -999.2500         2.6391      -999.2500       104.0977       210.8691        71.3758      -999.2500      -999.2500         2.2913         0.3234     
 3290.0000         1.6577      -999.2500      -999.2500         2.2836      -999.2500       106.6841       214.4503        66.9463      -999.2500      -999.2500         2.2964         0.4141     
 3290.5000         1.2803      -999.2500      -999.2500         1.9760      -999.2500       109.6335       218.0314        67.4371      -999.2500      -999.2500         2.3665         0.4007     
 3291.0000         1.5105      -999.2500      -999.2500         2.6905      -999.2500       109.1204       221.6126        68.3054      -999.2500      -999.2500         2.4155         0.3771     
 3291.5000         1.9157      -999.2500      -999.2500         4.1927      -999.2500       108.5864       224.8168        69.1737      -999.2500      -999.2500         2.4644         0.3535     
 3292.0000         2.4297      -999.2500      -999.2500         6.5338      -999.2500       104.9581       215.5812        69.9664      -999.2500      -999.2500         2.5133         0.3299     
 3292.5000         3.0815      -999.2500      -999.2500        10.1821      -999.2500       101.6754       207.2251        67.9530      -999.2500      -999.2500         2.5516         0.3063     
