~Version Information Section
VERS.          2.0                                     : CWLS LOG ASCII Standard
WRAP.          NO                                      : One line per depth step
CREA.          23/01/15                                : LAS Creation Date
~Well Information Section
STRT.ft        156.5000                                : Start Depth
STOP.ft        5559.5000                               : Stop Depth
STEP.ft        0.5000                                  : Step
NULL.          -999.2500                               : Null Value
COMP.          National Grid                           : Company
WELL.          42/25d-3                                : Well
FLD .          5-42                                    : Field
LOC .          Southern North Sea                      : Location
LOC1.          6013203.77mN 363100.21mE                : Location (UTM)
CTRY.          UK                                      : Country
PROV.          UKCS                                    : Province
STAT.          -                                       : State
CNTY.          -                                       : County
UWI .          502740                                  : UWI Number
API .          -                                       : API Number
SECT.          -                                       : Section
TOWN.          -                                       : Township
RNGE.          -                                       : Range
PDAT.          MSL                                     : Perm Datum
EPD .ft        0.00                                    : Elevation
LMF .          DF                                      : Log Measured From
DMF .          DF                                      : Drill Measured From
APD .ft        127.00                                  : Above Perm Datum
EKB .          -                                       : Elev-Kelly Bushing
EDF .ft        127.00                                  : Elev-Drill Floor
EGL .ft        -201.00                                 : Elev-Ground Level (Water Depth)
TDD .ft        5557.00                                 : Total Depth (Driller)
TDL .ft        5562.00                                 : Total Depth (Logger)
SRVC.          Schlumberger                            : Service Company
LATI.          54 14 50.284 N                          : Latitude
LONG.          00 53 56.356 E                          : Longitude
DATE.          03-Jun-29-JUN-2013                      : Logging Date
SET .          COMP WIRE                               : Set
~Curve Information Section
DEPTH.ft                                               : Depth Curve
AE10.ohmm                                              : AIT Env.Comp. Array Resistivity (AE10)
AE20.ohmm                                              : AIT Env.Comp. Array Resistivity (AE20)
AE30.ohmm                                              : AIT Env.Comp. Array Resistivity (AE30)
AE60.ohmm                                              : AIT Env.Comp. Array Resistivity (AE60)
AE90.ohmm                                              : AIT Env.Comp. Array Resistivity (AE90)
DTCO.us/ft                                             : Compressional Sonic
DTSM.us/ft                                             : Shear Sonic
GR.gAPI                                                : Gamma Ray
HDRA.g/cc                                              : Density Correction
PEF8.B/e                                               : Photo-electric Effect
RHOB.g/cc                                              : Bulk Density
TNPH.v/v                                               : Neutron Porosity
~ASCII Log Data Section
# ...
 2473.0000         1.8560      -999.2500      -999.2500         1.8560      -999.2500       103.2251       206.3713        91.9905      -999.2500      -999.2500         2.4682         0.3578     
 2473.5000         1.8391      -999.2500      -999.2500         1.8256      -999.2500       104.6702       208.3770        91.4305      -999.2500      -999.2500         2.4734         0.4047     
 2474.0000         1.7507      -999.2500      -999.2500         1.7113      -999.2500       106.4921       215.6021        94.5020      -999.2500      -999.2500         2.5047         0.4012     
 2474.5000         1.6665      -999.2500      -999.2500         1.6041      -999.2500       106.4921       222.8272        98.6232      -999.2500      -999.2500         2.5025         0.3954     
 2475.0000         1.5863      -999.2500      -999.2500         1.5036      -999.2500       106.4921       230.0524        92.4902      -999.2500      -999.2500         2.4995         0.3897     
 2475.5000         1.5100      -999.2500      -999.2500         1.4094      -999.2500       106.4921       226.5903        91.9379      -999.2500      -999.2500         2.4971         0.3839     
 2476.0000         1.4374      -999.2500      -999.2500         1.3436      -999.2500       106.4921       223.1283        96.8804      -999.2500      -999.2500         2.4947         0.3797     
 2476.5000         1.3683      -999.2500      -999.2500         1.5096      -999.2500       106.4921       219.6662       102.0318      -999.2500      -999.2500         2.4923         0.3924     
 2477.0000         1.2803      -999.2500      -999.2500         1.7099      -999.2500       102.3037       216.2042       102.8970      -999.2500      -999.2500         2.4891         0.4024     
 2477.5000         1.3964      -999.2500      -999.2500         1.6294      -999.2500       102.3037       212.7421        96.5321      -999.2500      -999.2500         2.4949         0.4125     
 2478.0000         1.5952      -999.2500      -999.2500         1.5133      -999.2500       102.1466       209.2801        92.9412      -999.2500      -999.2500         2.5047         0.4234     
 2478.5000         1.8223      -999.2500      -999.2500         1.4099      -999.2500       101.9459       205.9686        92.2197      -999.2500      -999.2500         2.5047         0.4059     
 2479.0000         2.0817      -999.2500      -999.2500         1.8293      -999.2500       101.7452       212.5654        90.2611      -999.2500      -999.2500         2.5047         0.3868     
 2479.5000         2.2836      -999.2500      -999.2500         2.1761      -999.2500       101.5445       218.8874        96.7878      -999.2500      -999.2500         2.5047         0.3734     
 2480.0000         1.6692      -999.2500      -999.2500         2.0737      -999.2500       101.2565       227.9581        97.7253      -999.2500      -999.2500         2.5047         0.3984     
 2480.5000         1.2200      -999.2500      -999.2500         1.9984      -999.2500       101.9372       226.1885        99.2919      -999.2500      -999.2500         2.5064         0.3835     
 2481.0000         1.3874      -999.2500      -999.2500         1.9259      -999.2500       103.1414       223.0576        98.6768      -999.2500      -999.2500         2.5094         0.3572     
 2481.5000         1.6692      -999.2500      -999.2500         1.8560      -999.2500       104.3455       219.9267        98.9856      -999.2500      -999.2500         2.5124         0.3297     
 2482.0000         1.9760      -999.2500      -999.2500         1.7944      -999.2500       105.5497       216.7958        96.0559      -999.2500      -999.2500         2.5151         0.3464     
 2482.5000         1.7168      -999.2500      -999.2500         1.6229      -999.2500       106.7539       214.3455        98.0948      -999.2500      -999.2500         2.5118         0.3638     
 2483.0000         1.5084      -999.2500      -999.2500         1.4796      -999.2500       107.9581       223.1414       100.7548      -999.2500      -999.2500         2.5099         0.3813     
 2483.5000         1.7099      -999.2500      -999.2500         1.7099      -999.2500       108.5864       230.3665       102.0352      -999.2500      -999.2500         2.4964         0.3987     
 2484.0000         1.5627      -999.2500      -999.2500         1.5627      -999.2500       108.5864       239.4764        98.6700      -999.2500      -999.2500         2.4839         0.4162     
 2484.5000         1.3479      -999.2500      -999.2500         1.3479      -999.2500       107.8941       236.9052        93.3856      -999.2500      -999.2500         2.4846         0.4359     
 2485.0000         1.1626      -999.2500      -999.2500         1.1626      -999.2500       106.9575       233.4264        97.0219      -999.2500      -999.2500         2.4856         0.4078     
 2485.5000         1.8830      -999.2500      -999.2500         1.8830      -999.2500       106.0209       229.9476        99.6993      -999.2500      -999.2500         2.4866         0.3797     
 2486.0000         1.6611      -999.2500      -999.2500         1.6611      -999.2500       105.0844       226.4689       101.3213      -999.2500      -999.2500         2.4876         0.3837     
 2486.5000         1.4867      -999.2500      -999.2500         1.4867      -999.2500       104.1478       222.9901        99.5853      -999.2500      -999.2500         2.4886         0.3873     
 2487.0000         1.2803      -999.2500      -999.2500         1.2803      -999.2500       103.2112       219.5113       101.4966      -999.2500      -999.2500         2.4916         0.3922     
 2487.5000         1.4531      -999.2500      -999.2500         1.4531      -999.2500       102.2746       216.0326       104.5858      -999.2500      -999.2500         2.4964         0.3734     
 2488.0000         1.7643      -999.2500      -999.2500         1.7643      -999.2500       101.2565       212.2513       101.5844      -999.2500      -999.2500         2.5011         0.3447     
 2488.5000         2.1423      -999.2500      -999.2500         2.1423      -999.2500       102.0812       218.2984        94.7842      -999.2500      -999.2500         2.5059         0.3172     
 2489.0000         2.5148      -999.2500      -999.2500         2.5148      -999.2500       102.9843       224.9215        86.9760      -999.2500      -999.2500         2.5099         0.3367     
 2489.5000         1.5944      -999.2500      -999.2500         1.5944      -999.2500       103.8874       231.5445        88.1577      -999.2500      -999.2500         2.5076         0.3554     
 2490.0000         1.2803      -999.2500      -999.2500         1.2803      -999.2500       104.7906       235.2880        89.2619      -999.2500      -999.2500         2.5047         0.3741     
 2490.5000         1.7099      -999.2500      -999.2500         1.7099      -999.2500       105.6937       233.2147        91.7851      -999.2500      -999.2500         2.5055         0.3984     
 2491.0000         1.5829      -999.2500      -999.2500         1.5829      -999.2500       106.5969       231.7696        94.5604      -999.2500      -999.2500         2.5070         0.4009     
 2491.5000         1.4167      -999.2500      -999.2500         1.4167      -999.2500       107.5000       230.3246        94.4402      -999.2500      -999.2500         2.5085         0.4047     
 2492.0000         1.2803      -999.2500      -999.2500         1.2803      -999.2500       108.4031       229.0052        91.5304      -999.2500      -999.2500         2.5099         0.4141     
 2492.5000         1.4443      -999.2500      -999.2500         1.4443      -999.2500       109.3063       232.5580        87.1699      -999.2500      -999.2500         2.5066         0.4240     
 2493.0000         1.5527      -999.2500      -999.2500         1.5527      -999.2500       110.2094       235.8265        91.3423      -999.2500      -999.2500         2.5047         0.4339     
