~Version Information Section
VERS.          2.0                                     : CWLS LOG ASCII Standard
WRAP.          NO                                      : One line per depth step
CREA.          23/01/15                                : LAS Creation Date
~Well Information Section
STRT.ft        156.5000                                : Start Depth
STOP.ft        5559.5000                               : Stop Depth
STEP.ft        0.5000                                  : Step
NULL.          -999.2500                               : Null Value
COMP.          National Grid                           : Company
WELL.          42/25d-3                                : Well
FLD .          5-42                                    : Field
LOC .          Southern North Sea                      : Location
LOC1.          6013203.77mN 363100.21mE                : Location (UTM)
CTRY.          UK                                      : Country
PROV.          UKCS                                    : Province
STAT.          -                                       : State
CNTY.          -                                       : County
UWI .          502740                                  : UWI Number
API .          -                                       : API Number
SECT.          -                                       : Section
TOWN.          -                                       : Township
RNGE.          -                                       : Range
PDAT.          MSL                                     : Perm Datum
EPD .ft        0.00                                    : Elevation
LMF .          DF                                      : Log Measured From
DMF .          DF                                      : Drill Measured From
APD .ft        127.00                                  : Above Perm Datum
EKB .          -                                       : Elev-Kelly Bushing
EDF .ft        127.00                                  : Elev-Drill Floor
EGL .ft        -201.00                                 : Elev-Ground Level (Water Depth)
TDD .ft        5557.00                                 : Total Depth (Driller)
TDL .ft        5562.00                                 : Total Depth (Logger)
SRVC.          Schlumberger                            : Service Company
LATI.          54 14 50.284 N                          : Latitude
LONG.          00 53 56.356 E                          : Longitude
DATE.          03-Jun-29-JUN-2013                      : Logging Date
SET .          COMP WIRE                               : Set
~Curve Information Section
DEPTH.ft                                               : Depth Curve
AE10.ohmm                                              : AIT Env.Comp. Array Resistivity (AE10)
AE20.ohmm                                              : AIT Env.Comp. Array Resistivity (AE20)
AE30.ohmm                                              : AIT Env.Comp. Array Resistivity (AE30)
AE60.ohmm                                              : AIT Env.Comp. Array Resistivity (AE60)
AE90.ohmm                                              : AIT Env.Comp. Array Resistivity (AE90)
DTCO.us/ft                                             : Compressional Sonic
DTSM.us/ft                                             : Shear Sonic
GR.gAPI                                                : Gamma Ray
HDRA.g/cc                                              : Density Correction
PEF8.B/e                                               : Photo-electric Effect
RHOB.g/cc                                              : Bulk Density
TNPH.v/v                                               : Neutron Porosity
~ASCII Log Data Section
# ...
 3088.0000         2.4422      -999.2500      -999.2500         4.2692      -999.2500        86.2408       163.9192        74.1826      -999.2500      -999.2500         2.5185         0.3109     
 3088.5000         2.6391      -999.2500      -999.2500         5.4398      -999.2500        87.6440       166.5221        76.2846      -999.2500      -999.2500         2.5246         0.2609     
 3089.0000         2.4392      -999.2500      -999.2500         3.5553      -999.2500        87.6440       169.1249        78.3866      -999.2500      -999.2500         2.5307         0.2839     
 3089.5000         2.2221      -999.2500      -999.2500         2.2836      -999.2500        87.6440       171.4136        80.4886      -999.2500      -999.2500         2.5226         0.3078     
 3090.0000         2.0737      -999.2500      -999.2500         2.6544      -999.2500        87.6440       168.1466        82.0470      -999.2500      -999.2500         2.5143         0.2946     
 3090.5000         1.6788      -999.2500      -999.2500         3.0357      -999.2500        87.6440       165.2314        80.5772      -999.2500      -999.2500         2.5060         0.2828     
 3091.0000         1.5585      -999.2500      -999.2500         3.4719      -999.2500        87.6440       162.3162        79.0268      -999.2500      -999.2500         2.4976         0.2672     
 3091.5000         1.5694      -999.2500      -999.2500         4.0732      -999.2500        87.6440       158.8482        81.5789      -999.2500      -999.2500         2.4893         0.2742     
 3092.0000         1.5804      -999.2500      -999.2500         2.9657      -999.2500        87.6440       165.0000        85.3742      -999.2500      -999.2500         2.4810         0.2845     
 3092.5000         1.5915      -999.2500      -999.2500         2.0737      -999.2500        87.6440       172.5916        89.1695      -999.2500      -999.2500         2.4734         0.2949     
 3093.0000         1.6027      -999.2500      -999.2500         2.5148      -999.2500        87.6440       180.1832        92.1141      -999.2500      -999.2500         2.4839         0.3052     
 3093.5000         1.6139      -999.2500      -999.2500         2.3889      -999.2500        87.6440       185.0262        84.1087      -999.2500      -999.2500         2.4936         0.3156     
 3094.0000         1.6294      -999.2500      -999.2500         2.2908      -999.2500        87.6440       180.0628        77.5691      -999.2500      -999.2500         2.5033         0.3297     
 3094.5000         1.7499      -999.2500      -999.2500         2.1761      -999.2500        87.6440       176.4188        71.0295      -999.2500      -999.2500         2.5151         0.3389     
 3095.0000         1.9571      -999.2500      -999.2500         2.4431      -999.2500        88.9005       172.7749        63.9262      -999.2500      -999.2500         2.5260         0.3534     
 3095.5000         2.1887      -999.2500      -999.2500         2.8361      -999.2500        90.5201       169.3194        63.2148      -999.2500      -999.2500         2.5401         0.3672     
 3096.0000         2.3964      -999.2500      -999.2500         3.2005      -999.2500        91.8325       175.7068        62.4362      -999.2500      -999.2500         2.5516         0.3476     
 3096.5000         2.3335      -999.2500      -999.2500         2.9661      -999.2500        91.8325       181.7801        61.9128      -999.2500      -999.2500         2.5760         0.3289     
 3097.0000         2.2818      -999.2500      -999.2500         2.7824      -999.2500        91.8325       183.7546        59.8993      -999.2500      -999.2500         2.5965         0.3103     
 3097.5000         2.2314      -999.2500      -999.2500         2.6101      -999.2500        90.9529       181.0231        57.5503      -999.2500      -999.2500         2.6171         0.2917     
 3098.0000         2.1761      -999.2500      -999.2500         2.4485      -999.2500        89.4953       178.2916        53.6577      -999.2500      -999.2500         2.6401         0.2730     
 3098.5000         2.1761      -999.2500      -999.2500         2.2969      -999.2500        88.0377       175.5601        49.8322      -999.2500      -999.2500         2.6454         0.2547     
 3099.0000         2.1761      -999.2500      -999.2500         2.1761      -999.2500        86.5801       172.8286        52.2019      -999.2500      -999.2500         2.6505         0.2634     
 3099.5000         2.0737      -999.2500      -999.2500         2.2232      -999.2500        85.5497       170.0971        54.5314      -999.2500      -999.2500         2.6470         0.2720     
 3100.0000         2.1651      -999.2500      -999.2500         2.2649      -999.2500        84.5026       166.1780        56.8609      -999.2500      -999.2500         2.6440         0.2805     
 3100.5000         2.2385      -999.2500      -999.2500         2.3073      -999.2500        84.9888       167.6527        59.8993      -999.2500      -999.2500         2.6401         0.2891     
 3101.0000         2.3144      -999.2500      -999.2500         2.3505      -999.2500        85.8489       170.2618        59.7383      -999.2500      -999.2500         2.6332         0.2977     
 3101.5000         2.3964      -999.2500      -999.2500         2.3964      -999.2500        86.7091       172.8709        59.5067      -999.2500      -999.2500         2.6232         0.3062     
 3102.0000         2.0737      -999.2500      -999.2500         2.0737      -999.2500        87.5692       175.4799        59.2752      -999.2500      -999.2500         2.6141         0.3141     
 3102.5000         2.2528      -999.2500      -999.2500         2.2528      -999.2500        88.4293       178.0890        59.0436      -999.2500      -999.2500         2.6271         0.2945     
 3103.0000         2.4313      -999.2500      -999.2500         2.4313      -999.2500        89.2895       179.7906        58.8926      -999.2500      -999.2500         2.6391         0.2766     
 3103.5000         2.6240      -999.2500      -999.2500         2.6240      -999.2500        87.6440       173.2984        54.8658      -999.2500      -999.2500         2.6557         0.2586     
 3104.0000         2.8319      -999.2500      -999.2500         2.8319      -999.2500        87.1309       168.4817        55.5705      -999.2500      -999.2500         2.6497         0.2359     
 3104.5000         3.0563      -999.2500      -999.2500         3.0563      -999.2500        86.2880       163.0366        56.7282      -999.2500      -999.2500         2.6397         0.2426     
 3105.0000         3.2984      -999.2500      -999.2500         3.2984      -999.2500        85.4450       164.6073        57.8859      -999.2500      -999.2500         2.6297         0.2516     
 3105.5000         3.5245      -999.2500      -999.2500         3.5245      -999.2500        84.6021       166.4136        58.8926      -999.2500      -999.2500         2.6477         0.2396     
 3106.0000         3.3944      -999.2500      -999.2500         3.3944      -999.2500        83.7592       168.2199        53.8591      -999.2500      -999.2500         2.6609         0.2276     
 3106.5000         3.2834      -999.2500      -999.2500         3.2834      -999.2500        82.9162       169.3194        49.4799      -999.2500      -999.2500         2.6855         0.2203     
 3107.0000         3.1759      -999.2500      -999.2500         3.1759      -999.2500        82.0733       161.9476        46.0067      -999.2500      -999.2500         2.7049         0.2220     
 3107.5000         3.0498      -999.2500      -999.2500         3.0498      -999.2500        81.2304       156.6492        42.5336      -999.2500      -999.2500         2.7286         0.2234     
 3108.0000         3.5759      -999.2500      -999.2500         3.5759      -999.2500        80.3874       151.3508        38.7584      -999.2500      -999.2500         2.7202         0.2109     
