~Version Information Section
VERS.          2.0                                     : CWLS LOG ASCII Standard
WRAP.          NO                                      : One line per depth step
CREA.          23/01/15                                : LAS Creation Date
~Well Information Section
STRT.ft        156.5000                                : Start Depth
STOP.ft        5559.5000                               : Stop Depth
STEP.ft        0.5000                                  : Step
NULL.          -999.2500                               : Null Value
COMP.          National Grid                           : Company
WELL.          42/25d-3                                : Well
FLD .          5-42                                    : Field
LOC .          Southern North Sea                      : Location
LOC1.          6013203.77mN 363100.21mE                : Location (UTM)
CTRY.          UK                                      : Country
PROV.          UKCS                                    : Province
STAT.          -                                       : State
CNTY.          -                                       : County
UWI .          502740                                  : UWI Number
API .          -                                       : API Number
SECT.          -                                       : Section
TOWN.          -                                       : Township
RNGE.          -                                       : Range
PDAT.          MSL                                     : Perm Datum
EPD .ft        0.00                                    : Elevation
LMF .          DF                                      : Log Measured From
DMF .          DF                                      : Drill Measured From
APD .ft        127.00                                  : Above Perm Datum
EKB .          -                                       : Elev-Kelly Bushing
EDF .ft        127.00                                  : Elev-Drill Floor
EGL .ft        -201.00                                 : Elev-Ground Level (Water Depth)
TDD .ft        5557.00                                 : Total Depth (Driller)
TDL .ft        5562.00                                 : Total Depth (Logger)
SRVC.          Schlumberger                            : Service Company
LATI.          54 14 50.284 N                          : Latitude
LONG.          00 53 56.356 E                          : Longitude
DATE.          03-Jun-29-JUN-2013                      : Logging Date
SET .          COMP WIRE                               : Set
~Curve Information Section
DEPTH.ft                                               : Depth Curve
AE10.ohmm                                              : AIT Env.Comp. Array Resistivity (AE10)
AE20.ohmm                                              : AIT Env.Comp. Array Resistivity (AE20)
AE30.ohmm                                              : AIT Env.Comp. Array Resistivity (AE30)
AE60.ohmm                                              : AIT Env.Comp. Array Resistivity (AE60)
AE90.ohmm                                              : AIT Env.Comp. Array Resistivity (AE90)
DTCO.us/ft                                             : Compressional Sonic
DTSM.us/ft                                             : Shear Sonic
GR.gAPI                                                : Gamma Ray
HDRA.g/cc                                              : Density Correction
PEF8.B/e                                               : Photo-electric Effect
RHOB.g/cc                                              : Bulk Density
TNPH.v/v                                               : Neutron Porosity
~ASCII Log Data Section
# ...
 2883.0000         3.2160      -999.2500      -999.2500         3.2160      -999.2500        86.1780       175.6021        49.8322      -999.2500      -999.2500         2.6393         0.1859     
 2883.5000         3.3398      -999.2500      -999.2500         3.3398      -999.2500        84.5026       169.5812        53.1759      -999.2500      -999.2500         2.6609         0.2356     
 2884.0000         2.4392      -999.2500      -999.2500         2.4392      -999.2500        84.8168       163.5602        55.6568      -999.2500      -999.2500         2.6766         0.2724     
 2884.5000         1.7099      -999.2500      -999.2500         1.7099      -999.2500        85.3328       156.7539        58.1376      -999.2500      -999.2500         2.6257         0.3141     
 2885.0000         2.1073      -999.2500      -999.2500         2.1414      -999.2500        85.8489       167.2251        60.6184      -999.2500      -999.2500         2.5568         0.3012     
 2885.5000         2.6797      -999.2500      -999.2500         2.7739      -999.2500        86.3650       177.6963        63.0992      -999.2500      -999.2500         2.5717         0.2863     
 2886.0000         3.2005      -999.2500      -999.2500         3.3586      -999.2500        86.8811       160.4538        64.9329      -999.2500      -999.2500         2.5828         0.2715     
 2886.5000         1.9760      -999.2500      -999.2500         1.8830      -999.2500        87.3972       145.2007        60.8456      -999.2500      -999.2500         2.6225         0.2567     
 2887.0000         2.1761      -999.2500      -999.2500         3.6987      -999.2500        86.5445       141.5497        57.6040      -999.2500      -999.2500         2.6539         0.2419     
 2887.5000         2.3323      -999.2500      -999.2500         3.2005      -999.2500        84.4372       148.5340        54.3624      -999.2500      -999.2500         2.6922         0.2271     
 2888.0000         2.5148      -999.2500      -999.2500         2.5148      -999.2500        82.3298       155.5183        50.8389      -999.2500      -999.2500         2.7016         0.2109     
 2888.5000         2.5576      -999.2500      -999.2500         2.8183      -999.2500        80.3141       162.5026        53.5403      -999.2500      -999.2500         2.7130         0.2087     
 2889.0000         2.6053      -999.2500      -999.2500         3.1928      -999.2500        80.9424       168.2723        56.4989      -999.2500      -999.2500         2.6919         0.2064     
 2889.5000         2.6391      -999.2500      -999.2500         3.6171      -999.2500        81.3613       167.3298        59.4575      -999.2500      -999.2500         2.6717         0.2047     
 2890.0000         2.3113      -999.2500      -999.2500         3.8814      -999.2500        84.2408       166.1780        62.4161      -999.2500      -999.2500         2.6515         0.2375     
 2890.5000         2.0879      -999.2500      -999.2500         3.0572      -999.2500        86.4485       170.9424        65.3747      -999.2500      -999.2500         2.6313         0.2627     
 2891.0000         1.8860      -999.2500      -999.2500         2.5886      -999.2500        88.6562       179.3717        68.3333      -999.2500      -999.2500         2.6111         0.2878     
 2891.5000         1.7037      -999.2500      -999.2500         2.1919      -999.2500        90.8639       187.8010        71.2919      -999.2500      -999.2500         2.5909         0.3130     
 2892.0000         1.5527      -999.2500      -999.2500         1.8830      -999.2500        92.8796       196.2304        73.9933      -999.2500      -999.2500         2.5724         0.3359     
 2892.5000         2.4158      -999.2500      -999.2500         2.7035      -999.2500        92.2251       202.8272        66.9463      -999.2500      -999.2500         2.5691         0.2953     
 2893.0000         3.6280      -999.2500      -999.2500         3.7707      -999.2500        91.8325       184.6492        60.4631      -999.2500      -999.2500         2.5672         0.2579     
 2893.5000         4.1425      -999.2500      -999.2500         4.1425      -999.2500        87.7749       169.7173        53.9799      -999.2500      -999.2500         2.6922         0.2206     
 2894.0000         3.5076      -999.2500      -999.2500         3.5076      -999.2500        84.7644       154.7853        45.8054      -999.2500      -999.2500         2.6904         0.1734     
 2894.5000         2.9063      -999.2500      -999.2500         2.9063      -999.2500        81.3613       137.9058        43.7919      -999.2500      -999.2500         2.6870         0.1717     
 2895.0000         3.7889      -999.2500      -999.2500         3.7889      -999.2500        77.1728       144.0140        46.2081      -999.2500      -999.2500         2.6727         0.1693     
 2895.5000         4.9397      -999.2500      -999.2500         4.9397      -999.2500        78.0759       151.0384        48.9866      -999.2500      -999.2500         2.6562         0.1672     
 2896.0000         2.8098      -999.2500      -999.2500         2.8098      -999.2500        78.9791       158.0628        51.7651      -999.2500      -999.2500         2.6397         0.2220     
 2896.5000         2.0737      -999.2500      -999.2500         2.0737      -999.2500        79.8822       165.0873        54.5436      -999.2500      -999.2500         2.6297         0.2516     
 2897.0000         3.4240      -999.2500      -999.2500         3.4240      -999.2500        79.2670       174.5550        48.9262      -999.2500      -999.2500         2.6609         0.1886     
 2897.5000         4.9100      -999.2500      -999.2500         4.9100      -999.2500        77.2600       165.6545        32.7181      -999.2500      -999.2500         2.7352         0.1433     
 2898.0000         7.2651      -999.2500      -999.2500         7.2651      -999.2500        75.0785       152.0070        33.1711      -999.2500      -999.2500         2.8589         0.0980     
 2898.5000         5.0970      -999.2500      -999.2500         5.0970      -999.2500        75.2984       138.9529        33.7248      -999.2500      -999.2500         2.8326         0.0547     
 2899.0000         3.4572      -999.2500      -999.2500         3.4572      -999.2500        75.5393       144.4817        44.5973      -999.2500      -999.2500         2.8039         0.0978     
 2899.5000         2.6391      -999.2500      -999.2500         2.6391      -999.2500        75.7801       149.7801        51.8456      -999.2500      -999.2500         2.7751         0.1391     
 2900.0000         4.6228      -999.2500      -999.2500         4.6228      -999.2500        76.1257       155.0785        48.8255      -999.2500      -999.2500         2.7339         0.1984     
 2900.5000         7.1048      -999.2500      -999.2500         7.1048      -999.2500        75.7853       161.9895        46.8624      -999.2500      -999.2500         2.7440         0.1895     
 2901.0000        11.7669      -999.2500      -999.2500        11.7669      -999.2500        75.1832       137.9058        43.3893      -999.2500      -999.2500         2.7651         0.1737     
 2901.5000         8.4416      -999.2500      -999.2500         8.4416      -999.2500        74.5812       141.2880        39.7651      -999.2500      -999.2500         2.7423         0.1579     
 2902.0000         5.6470      -999.2500      -999.2500         5.6470      -999.2500        74.0314       145.3822        43.7200      -999.2500      -999.2500         2.7148         0.1421     
 2902.5000         3.7775      -999.2500      -999.2500         3.7775      -999.2500        75.3403       149.4764        47.8547      -999.2500      -999.2500         2.6872         0.1297     
 2903.0000         2.9063      -999.2500      -999.2500         2.9063      -999.2500        76.5445       153.5707        51.9895      -999.2500      -999.2500         2.6597         0.1888     
