~Version Information Section
VERS.          2.0                                     : CWLS LOG ASCII Standard
WRAP.          NO                                      : One line per depth step
CREA.          23/01/15                                : LAS Creation Date
~Well Information Section
STRT.ft        156.5000                                : Start Depth
STOP.ft        5559.5000                               : Stop Depth
STEP.ft        0.5000                                  : Step
NULL.          -999.2500                               : Null Value
COMP.          National Grid                           : Company
WELL.          42/25d-3                                : Well
FLD .          5-42                                    : Field
LOC .          Southern North Sea                      : Location
LOC1.          6013203.77mN 363100.21mE                : Location (UTM)
CTRY.          UK                                      : Country
PROV.          UKCS                                    : Province
STAT.          -                                       : State
CNTY.          -                                       : County
UWI .          502740                                  : UWI Number
API .          -                                       : API Number
SECT.          -                                       : Section
TOWN.          -                                       : Township
RNGE.          -                                       : Range
PDAT.          MSL                                     : Perm Datum
EPD .ft        0.00                                    : Elevation
LMF .          DF                                      : Log Measured From
DMF .          DF                                      : Drill Measured From
APD .ft        127.00                                  : Above Perm Datum
EKB .          -                                       : Elev-Kelly Bushing
EDF .ft        127.00                                  : Elev-Drill Floor
EGL .ft        -201.00                                 : Elev-Ground Level (Water Depth)
TDD .ft        5557.00                                 : Total Depth (Driller)
TDL .ft        5562.00                                 : Total Depth (Logger)
SRVC.          Schlumberger                            : Service Company
LATI.          54 14 50.284 N                          : Latitude
LONG.          00 53 56.356 E                          : Longitude
DATE.          03-Jun-29-JUN-2013                      : Logging Date
SET .          COMP WIRE                               : Set
~Curve Information Section
DEPTH.ft                                               : Depth Curve
AE10.ohmm                                              : AIT Env.Comp. Array Resistivity (AE10)
AE20.ohmm                                              : AIT Env.Comp. Array Resistivity (AE20)
AE30.ohmm                                              : AIT Env.Comp. Array Resistivity (AE30)
AE60.ohmm                                              : AIT Env.Comp. Array Resistivity (AE60)
AE90.ohmm                                              : AIT Env.Comp. Array Resistivity (AE90)
DTCO.us/ft                                             : Compressional Sonic
DTSM.us/ft                                             : Shear Sonic
GR.gAPI                                                : Gamma Ray
HDRA.g/cc                                              : Density Correction
PEF8.B/e                                               : Photo-electric Effect
RHOB.g/cc                                              : Bulk Density
TNPH.v/v                                               : Neutron Porosity
~ASCII Log Data Section
# ...
 5507.0000         2.4025         2.4392         2.4572         2.5019         2.4854      -999.2500      -999.2500       138.1319        -0.0051         3.5729         2.5872         0.2125     
 5507.5000         2.5148         2.5423         2.5454         2.5741         2.5564      -999.2500      -999.2500       140.1340        -0.0068         3.6307         2.5986         0.2081     
 5508.0000         2.5478         2.6009         2.5977         2.6280         2.6088      -999.2500      -999.2500       145.8076        -0.0063         3.8326         2.5910         0.2173     
 5508.5000         2.5503         2.5820         2.5979         2.6282         2.6086      -999.2500      -999.2500       152.1692        -0.0044         3.8644         2.6002         0.2320     
 5509.0000         2.6191         2.6455         2.6517         2.6804         2.6593      -999.2500      -999.2500       149.3878        -0.0028         3.8487         2.6018         0.2310     
 5509.5000         2.6724         2.7266         2.7113         2.7426         2.7198      -999.2500      -999.2500       146.1618        -0.0020         3.7595         2.6060         0.2246     
 5510.0000         2.4954         2.5449         2.5701         2.6026         2.5816      -999.2500      -999.2500       138.4438        -0.0013         3.7285         2.6052         0.2119     
 5510.5000         2.4385         2.4642         2.4803         2.5108         2.4917      -999.2500      -999.2500       138.2218        -0.0010         3.6707         2.6152         0.2053     
 5511.0000         2.5823         2.6527         2.6759         2.6809         2.6591      -999.2500      -999.2500       127.9106        -0.0030         3.5913         2.6134         0.1922     
 5511.5000         2.4521         2.4866         2.4981         2.5037         2.4853      -999.2500      -999.2500       125.2971        -0.0037         3.5015         2.5934         0.1858     
 5512.0000         2.4099         2.4435         2.4728         2.4951         2.4774      -999.2500      -999.2500       121.7371        -0.0034         3.5169         2.5870         0.1840     
 5512.5000         2.3628         2.3842         2.3934         2.4609         2.4446      -999.2500      -999.2500       122.8842        -0.0036         3.6280         2.5879         0.1805     
 5513.0000         2.4000         2.4108         2.4378         2.5008         2.4854      -999.2500      -999.2500       120.6592        -0.0054         3.5015         2.5908         0.1784     
 5513.5000         2.4338         2.4247         2.4545         2.5226         2.5084      -999.2500      -999.2500       123.6628        -0.0059         3.6217         2.5776         0.1842     
 5514.0000         2.4607         2.4888         2.5396         2.5756         2.5627      -999.2500      -999.2500       133.9389        -0.0041         3.7277         2.5877         0.2018     
 5514.5000         2.2606         2.3278         2.3292         2.3676         2.3577      -999.2500      -999.2500       140.4465        -0.0009         3.7161         2.5902         0.2072     
 5515.0000         1.9723         2.0542         2.1015         2.1379         2.1308      -999.2500      -999.2500       146.5654         0.0007         3.7045         2.5907         0.2133     
 5515.5000         2.1793         2.1370         2.1641         2.2090         2.2025      -999.2500      -999.2500       150.0556         0.0003         3.5666         2.5871         0.2185     
 5516.0000         2.3847         2.3416         2.3415         2.3892         2.3830      -999.2500      -999.2500       150.3340        -0.0031         3.7154         2.5960         0.2150     
 5516.5000         2.3379         2.3593         2.3653         2.4187         2.4140      -999.2500      -999.2500       144.4096        -0.0046         3.7353         2.5938         0.2035     
 5517.0000         2.2360         2.2864         2.2957         2.3367         2.3339      -999.2500      -999.2500       136.4698        -0.0039         3.6701         2.5930         0.1986     
 5517.5000         2.1760         2.2221         2.2113         2.2310         2.2297      -999.2500      -999.2500       135.0443        -0.0018         3.6080         2.5906         0.1837     
 5518.0000         2.2641         2.3137         2.3102         2.3614         2.3613      -999.2500      -999.2500       133.2925        -0.0017         3.6064         2.5881         0.1734     
 5518.5000         2.3577         2.3925         2.3930         2.4346         2.4359      -999.2500      -999.2500       137.7426        -0.0025         3.6214         2.6006         0.1699     
 5519.0000         2.4862         2.5171         2.5514         2.5361         2.5371      -999.2500      -999.2500       139.9323        -0.0018         3.6341         2.5985         0.1834     
 5519.5000         2.5789         2.6078         2.6580         2.7188         2.7226      -999.2500      -999.2500       146.2733        -0.0029         3.7334         2.6092         0.1819     
 5520.0000         2.5165         2.5678         2.6139         2.6803         2.6869      -999.2500      -999.2500       140.1547        -0.0022         3.7212         2.6139         0.1790     
 5520.5000         2.4887         2.5144         2.5724         2.6591         2.6671      -999.2500      -999.2500       137.3389        -0.0038         3.6626         2.6062         0.1676     
 5521.0000         2.3286         2.3436         2.4131         2.5029         2.5086      -999.2500      -999.2500       134.9398        -0.0042         3.7167         2.6141         0.1606     
 5521.5000         2.5619         2.5601         2.6049         2.6774         2.6822      -999.2500      -999.2500       145.7548        -0.0054         3.6575         2.5935         0.1543     
 5522.0000         2.8084         2.7849         2.7793         2.8350         2.8372      -999.2500      -999.2500       154.7494        -0.0062         3.7233         2.5766         0.1500     
 5522.5000         2.5147         2.6006         2.5954         2.6420         2.6407      -999.2500      -999.2500       160.1791        -0.0057         3.6420         2.5766         0.1539     
 5523.0000         2.4189         2.5040         2.4812         2.5217         2.5181      -999.2500      -999.2500       159.0879        -0.0071         3.7588         2.5696         0.1701     
 5523.5000         2.4019         2.5316         2.5492         2.5852         2.5793      -999.2500      -999.2500       156.8723        -0.0052         3.7902         2.5899         0.1767     
 5524.0000         2.6813         2.6742         2.7040         2.7586         2.7503      -999.2500      -999.2500       157.4172        -0.0045         3.7033         2.6141         0.1624     
 5524.5000         3.7297         3.7320         3.7898         3.8894         3.8688      -999.2500      -999.2500       155.8257        -0.0036         3.6479         2.6456         0.1368     
 5525.0000         3.6943         3.9037         3.8161         3.8937         3.8704      -999.2500      -999.2500       158.0285        -0.0059         3.5330         2.6190         0.1204     
 5525.5000         2.7837         2.7689         2.9765         3.1017         3.0853      -999.2500      -999.2500       155.4403        -0.0069         3.5585         2.5912         0.1238     
 5526.0000         2.8134         2.8495         2.9375         3.0497         3.0321      -999.2500      -999.2500       156.1742        -0.0070         3.6785         2.6155         0.1395     
 5526.5000         3.9122         3.9834         4.0145         4.0378         4.0025      -999.2500      -999.2500       157.7507        -0.0047         3.6091         2.6155         0.1506     
 5527.0000         2.7362         2.8369         2.8726         2.9084         2.8884      -999.2500      -999.2500       160.9519        -0.0029         3.6524         2.5982         0.1711     
