~Version Information Section
VERS.          2.0                                     : CWLS LOG ASCII Standard
WRAP.          NO                                      : One line per depth step
CREA.          23/01/15                                : LAS Creation Date
~Well Information Section
STRT.ft        156.5000                                : Start Depth
STOP.ft        5559.5000                               : Stop Depth
STEP.ft        0.5000                                  : Step
NULL.          -999.2500                               : Null Value
COMP.          National Grid                           : Company
WELL.          42/25d-3                                : Well
FLD .          5-42                                    : Field
LOC .          Southern North Sea                      : Location
LOC1.          6013203.77mN 363100.21mE                : Location (UTM)
CTRY.          UK                                      : Country
PROV.          UKCS                                    : Province
STAT.          -                                       : State
CNTY.          -                                       : County
UWI .          502740                                  : UWI Number
API .          -                                       : API Number
SECT.          -                                       : Section
TOWN.          -                                       : Township
RNGE.          -                                       : Range
PDAT.          MSL                                     : Perm Datum
EPD .ft        0.00                                    : Elevation
LMF .          DF                                      : Log Measured From
DMF .          DF                                      : Drill Measured From
APD .ft        127.00                                  : Above Perm Datum
EKB .          -                                       : Elev-Kelly Bushing
EDF .ft        127.00                                  : Elev-Drill Floor
EGL .ft        -201.00                                 : Elev-Ground Level (Water Depth)
TDD .ft        5557.00                                 : Total Depth (Driller)
TDL .ft        5562.00                                 : Total Depth (Logger)
SRVC.          Schlumberger                            : Service Company
LATI.          54 14 50.284 N                          : Latitude
LONG.          00 53 56.356 E                          : Longitude
DATE.          03-Jun-29-JUN-2013                      : Logging Date
SET .          COMP WIRE                               : Set
~Curve Information Section
DEPTH.ft                                               : Depth Curve
AE10.ohmm                                              : AIT Env.Comp. Array Resistivity (AE10)
AE20.ohmm                                              : AIT Env.Comp. Array Resistivity (AE20)
AE30.ohmm                                              : AIT Env.Comp. Array Resistivity (AE30)
AE60.ohmm                                              : AIT Env.Comp. Array Resistivity (AE60)
AE90.ohmm                                              : AIT Env.Comp. Array Resistivity (AE90)
DTCO.us/ft                                             : Compressional Sonic
DTSM.us/ft                                             : Shear Sonic
GR.gAPI                                                : Gamma Ray
HDRA.g/cc                                              : Density Correction
PEF8.B/e                                               : Photo-electric Effect
RHOB.g/cc                                              : Bulk Density
TNPH.v/v                                               : Neutron Porosity
~ASCII Log Data Section
# ...
 5302.0000         0.7125         0.6515         0.6179         0.6049         0.5975        77.3233      -999.2500        53.5089        -0.0074         2.8153         2.3801         0.1717     
 5302.5000         0.7020         0.6722         0.6438         0.6143         0.6058        78.5270      -999.2500        45.6102        -0.0056         2.7836         2.3953         0.1638     
 5303.0000         0.9314         0.8224         0.7557         0.7000         0.6881        78.8135      -999.2500        47.7241        -0.0041         2.8789         2.4529         0.1533     
 5303.5000         1.0862         0.9301         0.8971         0.8169         0.8026        77.3529      -999.2500        50.1715        -0.0024         3.0758         2.4902         0.1546     
 5304.0000         1.0658         0.8954         0.8809         0.8185         0.8118        75.1866      -999.2500        54.7257        -0.0020         3.0526         2.4128         0.1587     
 5304.5000         1.0884         0.8846         0.9052         0.9151         0.9142        74.1697      -999.2500        55.0593        -0.0026         3.0154         2.4474         0.1541     
 5305.0000         0.9691         0.7892         0.8076         0.8332         0.8388        74.9637      -999.2500        55.6154        -0.0043         3.0242         2.4422         0.1561     
 5305.5000         0.8780         0.7095         0.7186         0.7482         0.7571        76.7356      -999.2500        54.1762        -0.0058         2.8667         2.4283         0.1548     
 5306.0000         0.8377         0.7171         0.7306         0.7598         0.7698        78.2723      -999.2500        53.7313        -0.0072         2.9338         2.4081         0.1626     
 5306.5000         0.7263         0.6489         0.6417         0.6643         0.6724        78.8947      -999.2500        52.5006        -0.0076         2.8944         2.3736         0.1663     
 5307.0000         0.6593         0.5994         0.5804         0.5879         0.5943        78.7007      -999.2500        50.7206        -0.0072         2.9484         2.3684         0.1828     
 5307.5000         0.6610         0.6133         0.5789         0.5672         0.5724        78.2538      -999.2500        56.8391        -0.0079         2.9200         2.3885         0.1932     
 5308.0000         0.5687         0.5586         0.5414         0.5339         0.5373        77.9218      -999.2500        59.5159        -0.0085         2.9323         2.3858         0.1952     
 5308.5000         0.6814         0.6364         0.6042         0.5995         0.6013        77.6309      -999.2500        64.9671        -0.0098         3.0334         2.4263         0.1800     
 5309.0000         0.9935         0.9537         0.8999         0.8536         0.8508        77.2901      -999.2500        59.5162        -0.0101         3.1271         2.4501         0.1669     
 5309.5000         1.0164         0.9101         0.8922         0.8749         0.8646        76.9763      -999.2500        64.3000        -0.0105         3.0507         2.4358         0.1632     
 5310.0000         1.0539         0.8978         0.9353         0.9321         0.9114        76.6556      -999.2500        67.1920        -0.0092         3.0649         2.4606         0.1644     
 5310.5000         1.5146         1.2329         1.2367         1.1882         1.1423        76.2658      -999.2500        79.5401        -0.0062         3.3168         2.5511         0.1656     
 5311.0000         1.5128         1.2240         1.2147         1.2139         1.1558        76.0232      -999.2500        87.4386        -0.0023         3.4817         2.5161         0.1801     
 5311.5000         1.1657         0.9473         0.9576         0.9687         0.9233        76.1496      -999.2500        97.7842        -0.0000         3.0686         2.4997         0.1888     
 5312.0000         1.5188         1.2098         1.2581         1.1867         1.1251        76.4960      -999.2500        97.7843        -0.0014         3.3298         2.5567         0.1945     
 5312.5000         2.0420         1.3964         1.3846         1.2663         1.1953        76.8161      -999.2500        96.3381        -0.0051         3.3533         2.5559         0.1887     
 5313.0000         1.9053         1.3435         1.3265         1.2073         1.1542        77.0915      -999.2500        93.7798        -0.0075         3.2532         2.5056         0.1802     
 5313.5000         1.3790         1.1306         1.1282         1.0219         0.9977        77.3838      -999.2500        83.2115        -0.0089         3.3953         2.4790         0.1793     
 5314.0000         0.8558         0.7422         0.7292         0.7034         0.6981        77.6923      -999.2500        70.9743        -0.0089         3.2251         2.4477         0.1751     
 5314.5000         0.8179         0.7103         0.6911         0.6664         0.6644        78.0457      -999.2500        59.0017        -0.0086         3.2379         2.4023         0.1731     
 5315.0000         0.7099         0.6320         0.6048         0.5859         0.5885        78.4891      -999.2500        51.8820        -0.0070         3.1839         2.3666         0.1734     
 5315.5000         0.5800         0.5197         0.4884         0.4751         0.4785        79.0186      -999.2500        50.9920        -0.0062         2.8358         2.3417         0.1818     
 5316.0000         0.5441         0.4893         0.4620         0.4570         0.4606        79.5891      -999.2500        49.0590        -0.0053         2.7718         2.3490         0.1908     
 5316.5000         0.5093         0.4680         0.4433         0.4354         0.4390        80.1160      -999.2500        52.7304        -0.0052         2.7535         2.3537         0.1918     
 5317.0000         0.5164         0.4921         0.4551         0.4284         0.4323        80.5904      -999.2500        55.4003        -0.0070         2.7039         2.3676         0.2011     
 5317.5000         0.5770         0.5531         0.5277         0.5439         0.5498        81.1638      -999.2500        55.9772        -0.0065         2.7903         2.3715         0.2043     
 5318.0000         0.6679         0.6021         0.5556         0.5356         0.5391        81.7969      -999.2500        64.6544        -0.0037         3.1002         2.4307         0.1923     
 5318.5000         0.9876         0.8164         0.8047         0.8086         0.8094        82.0252      -999.2500        71.1066         0.0003         3.4738         2.6048         0.1751     
 5319.0000         1.7066         1.3038         1.1703         1.1712         1.1574        81.5366      -999.2500        83.8786         0.0005         3.3939         2.5312         0.1738     
 5319.5000         1.1339         0.9491         0.9891         1.1121         1.0832        80.6888      -999.2500        81.6537        -0.0011         3.2322         2.4361         0.1894     
 5320.0000         0.8501         0.7855         0.8341         0.8864         0.8556        79.9732      -999.2500        81.9876        -0.0010         3.1250         2.4603         0.2040     
 5320.5000         1.2637         1.1105         1.1251         1.1052         1.0576        79.3611      -999.2500        80.8962        -0.0007         3.3859         2.5086         0.1940     
 5321.0000         1.4781         1.3167         1.3695         1.2617         1.2037        78.6240      -999.2500        86.9032        -0.0012         3.4739         2.5201         0.1891     
 5321.5000         1.6037         1.4423         1.5062         1.3666         1.3006        77.8661      -999.2500        90.5026        -0.0035         3.4918         2.5493         0.1703     
 5322.0000         1.6777         1.5362         1.5187         1.4512         1.4126        77.2473      -999.2500        90.3982        -0.0040         3.5144         2.5141         0.1762     
