~Version Information Section
VERS.          2.0                                     : CWLS LOG ASCII Standard
WRAP.          NO                                      : One line per depth step
CREA.          23/01/15                                : LAS Creation Date
~Well Information Section
STRT.ft        156.5000                                : Start Depth
STOP.ft        5559.5000                               : Stop Depth
STEP.ft        0.5000                                  : Step
NULL.          -999.2500                               : Null Value
COMP.          National Grid                           : Company
WELL.          42/25d-3                                : Well
FLD .          5-42                                    : Field
LOC .          Southern North Sea                      : Location
LOC1.          6013203.77mN 363100.21mE                : Location (UTM)
CTRY.          UK                                      : Country
PROV.          UKCS                                    : Province
STAT.          -                                       : State
CNTY.          -                                       : County
UWI .          502740                                  : UWI Number
API .          -                                       : API Number
SECT.          -                                       : Section
TOWN.          -                                       : Township
RNGE.          -                                       : Range
PDAT.          MSL                                     : Perm Datum
EPD .ft        0.00                                    : Elevation
LMF .          DF                                      : Log Measured From
DMF .          DF                                      : Drill Measured From
APD .ft        127.00                                  : Above Perm Datum
EKB .          -                                       : Elev-Kelly Bushing
EDF .ft        127.00                                  : Elev-Drill Floor
EGL .ft        -201.00                                 : Elev-Ground Level (Water Depth)
TDD .ft        5557.00                                 : Total Depth (Driller)
TDL .ft        5562.00                                 : Total Depth (Logger)
SRVC.          Schlumberger                            : Service Company
LATI.          54 14 50.284 N                          : Latitude
LONG.          00 53 56.356 E                          : Longitude
DATE.          03-Jun-29-JUN-2013                      : Logging Date
SET .          COMP WIRE                               : Set
~Curve Information Section
DEPTH.ft                                               : Depth Curve
AE10.ohmm                                              : AIT Env.Comp. Array Resistivity (AE10)
AE20.ohmm                                              : AIT Env.Comp. Array Resistivity (AE20)
AE30.ohmm                                              : AIT Env.Comp. Array Resistivity (AE30)
AE60.ohmm                                              : AIT Env.Comp. Array Resistivity (AE60)
AE90.ohmm                                              : AIT Env.Comp. Array Resistivity (AE90)
DTCO.us/ft                                             : Compressional Sonic
DTSM.us/ft                                             : Shear Sonic
GR.gAPI                                                : Gamma Ray
HDRA.g/cc                                              : Density Correction
PEF8.B/e                                               : Photo-electric Effect
RHOB.g/cc                                              : Bulk Density
TNPH.v/v                                               : Neutron Porosity
~ASCII Log Data Section
# ...
 4707.5000         0.3743         0.3176         0.3138         0.3049         0.2954        82.4356       149.3153        44.4979        -0.0100         2.7079         2.2322         0.2469     
 4708.0000         0.3642         0.3151         0.3134         0.3022         0.2912        82.1855       148.3845        44.8318        -0.0087         3.0223         2.2602         0.2538     
 4708.5000         0.3609         0.3164         0.3107         0.2990         0.2872        81.5668       148.8360        46.8342        -0.0074         2.7321         2.2148         0.2525     
 4709.0000         0.3668         0.3121         0.3058         0.2933         0.2830        84.1124       151.9904        43.8654        -0.0057         2.4479         2.2141         0.2505     
 4709.5000         0.3808         0.3070         0.2968         0.2833         0.2773        85.8909       155.9415        39.0818        -0.0031         2.5676         2.2803         0.2448     
 4710.0000         0.3547         0.2910         0.2774         0.2624         0.2613        90.0176       161.7565        41.1955        -0.0017         2.7310         2.3017         0.2499     
 4710.5000         0.2893         0.2501         0.2417         0.2290         0.2297        92.8997       168.1095        43.7431        -0.0045         2.7374         2.1829         0.2830     
 4711.0000         0.2307         0.2105         0.2029         0.1970         0.2004        93.2822       173.4629        49.4165        -0.0061         2.3398         2.1172         0.3069     
 4711.5000         0.2144         0.1952         0.1854         0.1794         0.1859        93.9682       176.0615        50.9529        -0.0060         2.4372         2.0900         0.3180     
 4712.0000         0.2329         0.2112         0.2003         0.1956         0.2060        94.0019       175.4503        54.2665        -0.0035         2.5980         2.0985         0.3068     
 4712.5000         0.2535         0.2238         0.2111         0.2066         0.2186        92.1359       170.0482        56.2690        -0.0028         2.9709         2.1676         0.2859     
 4713.0000         0.2791         0.2370         0.2233         0.2173         0.2249        90.0063       164.2246        54.2876        -0.0046         2.6669         2.2512         0.2696     
 4713.5000         0.3052         0.2547         0.2418         0.2404         0.2410        87.0400       157.4741        52.0627        -0.0048         3.0098         2.2347         0.2500     
 4714.0000         0.3322         0.2741         0.2626         0.2606         0.2575        83.6731       152.1433        49.6153        -0.0043         2.7547         2.2310         0.2462     
 4714.5000         0.3813         0.3076         0.2958         0.2903         0.2882        82.0839       147.8357        47.2792        -0.0021         3.3918         2.2969         0.2373     
 4715.0000         0.4603         0.3614         0.3493         0.3366         0.3237        81.3613       145.8085        49.3927        -0.0013         3.3558         2.3621         0.2263     
 4715.5000         0.5705         0.4248         0.4105         0.3875         0.3693        82.2391       147.2101        50.6165        -0.0005         3.1921         2.4378         0.2081     
 4716.0000         0.5416         0.4167         0.4050         0.3812         0.3567        84.1667       150.2152        52.6186        -0.0012         3.0100         2.3258         0.2175     
 4716.5000         0.4164         0.3400         0.3314         0.3139         0.2950        87.1106       154.9884        49.7262        -0.0037         2.7363         2.2415         0.2392     
 4717.0000         0.3420         0.2950         0.2884         0.2712         0.2611        90.0754       161.1274        48.0575        -0.0070         2.8875         2.2167         0.2719     
 4717.5000         0.2966         0.2602         0.2556         0.2454         0.2424        91.7246       167.2933        45.2925        -0.0084         2.6123         2.1227         0.2974     
 4718.0000         0.2617         0.2337         0.2300         0.2204         0.2207        91.9658       172.7686        44.3121        -0.0063         2.5757         2.1332         0.2970     
 4718.5000         0.2403         0.2112         0.2086         0.2018         0.2036        92.2503       174.4334        42.1985        -0.0019         2.5776         2.1523         0.2771     
 4719.0000         0.2198         0.1978         0.1945         0.1899         0.1935        92.1396       174.9489        40.5140         0.0013         2.8382         2.1754         0.2582     
 4719.5000         0.2111         0.1921         0.1881         0.1871         0.1905        92.2242       173.8704        41.2719         0.0004         2.6900         2.1784         0.2698     
 4720.0000         0.2119         0.1940         0.1884         0.1855         0.1911        92.1011       172.1689        45.1655        -0.0021         2.5625         2.1562         0.2826     
 4720.5000         0.2230         0.2023         0.1964         0.1916         0.1965        91.3680       170.4142        50.6165        -0.0036         2.5593         2.1439         0.2857     
 4721.0000         0.2513         0.2275         0.2195         0.2133         0.2182        90.7068       168.9559        51.8402        -0.0051         2.7441         2.1986         0.3102     
 4721.5000         0.2873         0.2571         0.2469         0.2354         0.2397        90.0763       168.2046        51.3950        -0.0069         2.9768         2.1762         0.3157     
 4722.0000         0.2766         0.2485         0.2369         0.2228         0.2282        89.2929       166.2961        47.3902        -0.0076         2.6153         2.1440         0.2947     
 4722.5000         0.2519         0.2270         0.2161         0.2116         0.2194        88.5780       165.5412        47.7238        -0.0058         2.6185         2.1629         0.2684     
 4723.0000         0.2506         0.2243         0.2129         0.2111         0.2221        88.4727       165.0291        46.2779        -0.0029         2.6498         2.1865         0.2664     
 4723.5000         0.2553         0.2273         0.2165         0.2163         0.2254        88.5471       164.9122        45.6104        -0.0024         3.0526         2.2191         0.2710     
 4724.0000         0.2572         0.2273         0.2161         0.2182         0.2303        88.6073       164.8433        43.4967        -0.0024         2.8463         2.2315         0.2763     
 4724.5000         0.2552         0.2209         0.2111         0.2138         0.2248        88.3611       164.4413        43.8305        -0.0031         2.6044         2.1660         0.2679     
 4725.0000         0.2401         0.2172         0.2061         0.2090         0.2177        87.3054       162.6683        46.0554        -0.0017         2.6657         2.1711         0.2584     
 4725.5000         0.2515         0.2316         0.2228         0.2266         0.2347        85.9791       160.0311        49.2817        -0.0005         2.9622         2.2042         0.2442     
 4726.0000         0.2938         0.2636         0.2517         0.2572         0.2690        83.8318       155.3779        49.9490        -0.0006         2.8868         2.2574         0.2436     
 4726.5000         0.3679         0.3063         0.2899         0.2947         0.3020        82.0900       151.2164        52.9529        -0.0014         2.6766         2.3054         0.2411     
 4727.0000         0.4661         0.3684         0.3490         0.3526         0.3531        81.0144       148.9686        51.8402        -0.0016         2.7744         2.3083         0.2488     
 4727.5000         0.5243         0.4000         0.3852         0.3807         0.3706        81.1677       148.5593        49.1704        -0.0017         2.8746         2.3593         0.2414     
