~Version Information Section
VERS.          2.0                                     : CWLS LOG ASCII Standard
WRAP.          NO                                      : One line per depth step
CREA.          23/01/15                                : LAS Creation Date
~Well Information Section
STRT.ft        156.5000                                : Start Depth
STOP.ft        5559.5000                               : Stop Depth
STEP.ft        0.5000                                  : Step
NULL.          -999.2500                               : Null Value
COMP.          National Grid                           : Company
WELL.          42/25d-3                                : Well
FLD .          5-42                                    : Field
LOC .          Southern North Sea                      : Location
LOC1.          6013203.77mN 363100.21mE                : Location (UTM)
CTRY.          UK                                      : Country
PROV.          UKCS                                    : Province
STAT.          -                                       : State
CNTY.          -                                       : County
UWI .          502740                                  : UWI Number
API .          -                                       : API Number
SECT.          -                                       : Section
TOWN.          -                                       : Township
RNGE.          -                                       : Range
PDAT.          MSL                                     : Perm Datum
EPD .ft        0.00                                    : Elevation
LMF .          DF                                      : Log Measured From
DMF .          DF                                      : Drill Measured From
APD .ft        127.00                                  : Above Perm Datum
EKB .          -                                       : Elev-Kelly Bushing
EDF .ft        127.00                                  : Elev-Drill Floor
EGL .ft        -201.00                                 : Elev-Ground Level (Water Depth)
TDD .ft        5557.00                                 : Total Depth (Driller)
TDL .ft        5562.00                                 : Total Depth (Logger)
SRVC.          Schlumberger                            : Service Company
LATI.          54 14 50.284 N                          : Latitude
LONG.          00 53 56.356 E                          : Longitude
DATE.          03-Jun-29-JUN-2013                      : Logging Date
SET .          COMP WIRE                               : Set
~Curve Information Section
DEPTH.ft                                               : Depth Curve
AE10.ohmm                                              : AIT Env.Comp. Array Resistivity (AE10)
AE20.ohmm                                              : AIT Env.Comp. Array Resistivity (AE20)
AE30.ohmm                                              : AIT Env.Comp. Array Resistivity (AE30)
AE60.ohmm                                              : AIT Env.Comp. Array Resistivity (AE60)
AE90.ohmm                                              : AIT Env.Comp. Array Resistivity (AE90)
DTCO.us/ft                                             : Compressional Sonic
DTSM.us/ft                                             : Shear Sonic
GR.gAPI                                                : Gamma Ray
HDRA.g/cc                                              : Density Correction
PEF8.B/e                                               : Photo-electric Effect
RHOB.g/cc                                              : Bulk Density
TNPH.v/v                                               : Neutron Porosity
~ASCII Log Data Section
# ...
 3682.5000       360.8112      -999.2500      -999.2500      1390.3154      -999.2500        67.6178       117.7292        15.3974      -999.2500      -999.2500         2.1870        -0.0256     
 3683.0000       370.8130      -999.2500      -999.2500      1611.6844      -999.2500        67.6436       117.9667        14.9073      -999.2500      -999.2500         2.1793        -0.0250     
 3683.5000       381.0921      -999.2500      -999.2500      1545.0647      -999.2500        67.6695       118.2042        14.1523      -999.2500      -999.2500         2.1661        -0.0243     
 3684.0000       391.6562      -999.2500      -999.2500      1462.8394      -999.2500        67.6953       118.4417        13.4106      -999.2500      -999.2500         2.1732        -0.0236     
 3684.5000       402.5131      -999.2500      -999.2500      1384.9901      -999.2500        67.7211       118.6458        13.8221      -999.2500      -999.2500         2.1811        -0.0230     
 3685.0000       413.6709      -999.2500      -999.2500      1330.2910      -999.2500        67.7470       118.4375        14.2266      -999.2500      -999.2500         2.1870        -0.0223     
 3685.5000       425.1381      -999.2500      -999.2500      1241.4998      -999.2500        67.7728       118.2548        14.6310      -999.2500      -999.2500         2.1845        -0.0216     
 3686.0000       436.9231      -999.2500      -999.2500      1175.4297      -999.2500        67.7987       118.0721        15.0355      -999.2500      -999.2500         2.1818        -0.0209     
 3686.5000       449.0348      -999.2500      -999.2500      1112.8757      -999.2500        67.8245       117.8894        15.4399      -999.2500      -999.2500         2.1765        -0.0203     
 3687.0000       461.4822      -999.2500      -999.2500      1053.6507      -999.2500        67.8503       117.7067        15.8444      -999.2500      -999.2500         2.1682        -0.0196     
 3687.5000       474.2747      -999.2500      -999.2500       997.5775      -999.2500        67.8762       117.5240        16.2488      -999.2500      -999.2500         2.1599        -0.0189     
 3688.0000       487.4219      -999.2500      -999.2500       997.5775      -999.2500        67.9020       117.3413        16.6533      -999.2500      -999.2500         2.1516        -0.0183     
 3688.5000       500.9334      -999.2500      -999.2500       997.5775      -999.2500        67.9279       117.1587        17.0577      -999.2500      -999.2500         2.1453        -0.0176     
 3689.0000       514.8195      -999.2500      -999.2500       997.5775      -999.2500        67.9537       116.9760        17.4622      -999.2500      -999.2500         2.1527        -0.0172     
 3689.5000       529.0905      -999.2500      -999.2500      1120.7331      -999.2500        67.9796       116.7933        17.8666      -999.2500      -999.2500         2.1609        -0.0174     
 3690.0000       543.7572      -999.2500      -999.2500      1220.2439      -999.2500        68.0054       116.5625        18.3775      -999.2500      -999.2500         2.1585        -0.0176     
 3690.5000       558.8304      -999.2500      -999.2500      1328.5904      -999.2500        68.0312       117.1458        17.9603      -999.2500      -999.2500         2.1545        -0.0178     
 3691.0000       574.3214      -999.2500      -999.2500      1446.5570      -999.2500        68.0571       117.9375        17.3940      -999.2500      -999.2500         2.1505        -0.0180     
 3691.5000       590.2418      -999.2500      -999.2500      1574.9980      -999.2500        68.0829       118.6458        16.8278      -999.2500      -999.2500         2.1797        -0.0182     
 3692.0000       606.6036      -999.2500      -999.2500      1714.8433      -999.2500        68.1088       117.3333        16.3907      -999.2500      -999.2500         2.2094        -0.0184     
 3692.5000       617.4664      -999.2500      -999.2500      1867.1056      -999.2500        68.1346       116.1458        17.0861      -999.2500      -999.2500         2.2286        -0.0186     
 3693.0000       617.4664      -999.2500      -999.2500      1922.4866      -999.2500        68.1605       114.4792        16.9818      -999.2500      -999.2500         2.2078        -0.0188     
 3693.5000       583.6381      -999.2500      -999.2500      1860.4300      -999.2500        68.1863       115.3646        16.1325      -999.2500      -999.2500         2.1924        -0.0189     
 3694.0000       531.0323      -999.2500      -999.2500      1800.3765      -999.2500        68.2121       116.8490        15.2831      -999.2500      -999.2500         2.1769        -0.0191     
 3694.5000       483.1680      -999.2500      -999.2500      1742.2615      -999.2500        68.2380       118.3333        14.4040      -999.2500      -999.2500         2.1609        -0.0193     
 3695.0000       439.6180      -999.2500      -999.2500      1690.8821      -999.2500        68.2638       119.6875        15.0110      -999.2500      -999.2500         2.1638        -0.0195     
 3695.5000       399.9933      -999.2500      -999.2500      1402.5645      -999.2500        68.2897       119.6875        15.6402      -999.2500      -999.2500         2.1661        -0.0197     
 3696.0000       363.9402      -999.2500      -999.2500      1181.0819      -999.2500        68.3155       119.6875        16.2693      -999.2500      -999.2500         2.1805        -0.0199     
 3696.5000       331.1367      -999.2500      -999.2500       994.5741      -999.2500        68.3413       119.6875        16.8985      -999.2500      -999.2500         2.1870        -0.0201     
 3697.0000       301.2899      -999.2500      -999.2500       837.5183      -999.2500        68.3672       119.6875        17.5276      -999.2500      -999.2500         2.1870        -0.0203     
 3697.5000       274.1333      -999.2500      -999.2500       705.2635      -999.2500        68.3930       119.6875        18.1567      -999.2500      -999.2500         2.1557        -0.0195     
 3698.0000       248.1876      -999.2500      -999.2500       588.5454      -999.2500        68.4189       119.6875        18.7859      -999.2500      -999.2500         2.1590        -0.0183     
 3698.5000       251.4230      -999.2500      -999.2500       632.8597      -999.2500        68.4447       119.6875        19.3709      -999.2500      -999.2500         2.1630        -0.0171     
 3699.0000       254.8840      -999.2500      -999.2500       683.2606      -999.2500        68.4706       119.6875        18.9142      -999.2500      -999.2500         2.1661        -0.0159     
 3699.5000       258.3926      -999.2500      -999.2500       737.6754      -999.2500        68.4964       119.6875        18.4874      -999.2500      -999.2500         2.1567        -0.0147     
 3700.0000       257.2546      -999.2500      -999.2500       823.4047      -999.2500        68.5222       119.6875        18.0606      -999.2500      -999.2500         2.1453        -0.0135     
 3700.5000       250.2607      -999.2500      -999.2500       773.6241      -999.2500        68.5481       119.6875        17.6339      -999.2500      -999.2500         2.1528        -0.0123     
 3701.0000       243.4570      -999.2500      -999.2500       692.8087      -999.2500        68.5739       119.6875        17.2071      -999.2500      -999.2500         2.1659        -0.0111     
 3701.5000       236.8383      -999.2500      -999.2500       620.4355      -999.2500        68.5998       119.6875        16.7804      -999.2500      -999.2500         2.1791        -0.0099     
 3702.0000       230.3995      -999.2500      -999.2500       555.6227      -999.2500        68.6256       119.6875        16.3907      -999.2500      -999.2500         2.1923        -0.0087     
 3702.5000       225.4828      -999.2500      -999.2500       497.5805      -999.2500        68.6458       119.6875        18.2533      -999.2500      -999.2500         2.2026        -0.0078     
